{"features": [{"geometry": {"coordinates": [-122.230639, 37.774321], "type": "Point"}, "properties": {"address": "3500 E 9TH ST OAKLAND, CA 94601", "grade": "g", "inspection_date": "2018-04-04", "name": "24 HOUR OPTCC"}, "type": "Feature"}, {"geometry": {"coordinates": [-122.297895, 37.887389], "type": "Point"}, "properties": {"address": "977 SAN PABLO AVE ALBANY, CA 94706", "grade": "y", "inspection_date": "2015-08-25", "name": "SUMO SUSHI"}, "type": "Feature"}, {"geometry": {"coordinates": [-121.922852, 37.495863], "type": "Point"}, "properties": {"address": "46529 MISSION BLVD FREMONT, CA 94539", "grade": "g", "inspection_date": "2017-02-21", "name": "360 BAKERY & CAFE"}, "type": "Feature"}, {"geometry": {"coordinates": [-121.778047, 37.679007], "type": "Point"}, "properties": {"address": "1472 FIRST ST LIVERMORE, CA 94550", "grade": "g", "inspection_date": "2014-07-30", "name": "STARBUCKS COFFEE #5311"}, "type": "Feature"}, {"geometry": {"coordinates": [-122.097391, 37.633345], "type": "Point"}, "properties": {"address": "2175 ALDENGATE WAY HAYWARD, CA 94545", "grade": "g", "inspection_date": "2014-03-18", "name": "7-ELEVEN FOOD STORE #14182"}, "type": "Feature"}, {"geometry": {"coordinates": [-122.151854, 37.691354], "type": "Point"}, "properties": {"address": "1240 MANOR BLVD SAN LEANDRO, CA 94578", "grade": "g", "inspection_date": "2017-04-28", "name": "7-ELEVEN FOOD STORE #17008"}, "type": "Feature"}, {"geometry": {"coordinates": [-121.926437, 37.491757], "type": "Point"}, "properties": {"address": "46650 MOHAVE DR FREMONT, CA 94539", "grade": "g", "inspection_date": "2017-06-05", "name": "7-ELEVEN FOOD STORE #26596"}, "type": "Feature"}, {"geometry": {"coordinates": [-122.029136, 37.536192], "type": "Point"}, "properties": {"address": "35201 NEWARK BLVD V NEWARK, CA 94560", "grade": " ", "inspection_date": "2016-11-08", "name": "85 DEGREES BAKERY CAFE"}, "type": "Feature"}, {"geometry": {"coordinates": [-121.853186, 37.714799], "type": "Point"}, "properties": {"address": "3880 FALLON RD DUBLIN, CA 94568", "grade": "g", "inspection_date": "2019-04-24", "name": "88 BAO BAO"}, "type": "Feature"}, {"geometry": {"coordinates": [-122.136499, 37.710778], "type": "Point"}, "properties": {"address": "14405 E 14TH ST SAN LEANDRO, CA 94578", "grade": "y", "inspection_date": "2016-09-27", "name": "88 FOOD MARKET"}, "type": "Feature"}, {"geometry": {"coordinates": [-122.271082, 37.799042], "type": "Point"}, "properties": {"address": "337 8TH ST OAKLAND, CA 94607", "grade": "g", "inspection_date": "2013-06-24", "name": "8TH STREET CAFE"}, "type": "Feature"}, {"geometry": {"coordinates": [-122.098581, 37.684179], "type": "Point"}, "properties": {"address": "20882 MISSION BLVD HAYWARD, CA 94541", "grade": "g", "inspection_date": "2018-01-03", "name": "99 CENTS ONLY STORE #217"}, "type": "Feature"}, {"geometry": {"coordinates": [-122.283328, 37.80272], "type": "Point"}, "properties": {"address": "1440 7TH ST OAKLAND, CA 94607", "grade": "g", "inspection_date": "2014-03-06", "name": "99 CENTS ONLY STORE #278"}, "type": "Feature"}, {"geometry": {"coordinates": [-122.076107, 37.631285], "type": "Point"}, "properties": {"address": "1114 W TENNYSON RD HAYWARD, CA 94544", "grade": "g", "inspection_date": "2016-05-19", "name": "99 CENTS"}, "type": "Feature"}, {"geometry": {"coordinates": [-122.039234, 37.575335], "type": "Point"}, "properties": {"address": "34444 FREMONT BLVD FREMONT, CA 94555", "grade": "y", "inspection_date": "2019-03-28", "name": "99 RANCH MARKET #62"}, "type": "Feature"}, {"geometry": {"coordinates": [-122.039234, 37.575335], "type": "Point"}, "properties": {"address": "34444 FREMONT BLVD FREMONT, CA 94555", "grade": "g", "inspection_date": "2014-08-18", "name": "99 RANCH MARKET"}, "type": "Feature"}, {"geometry": {"coordinates": [-122.039234, 37.575335], "type": "Point"}, "properties": {"address": "34444 FREMONT BLVD FREMONT, CA 94555", "grade": "y", "inspection_date": "2015-01-13", "name": "99 RANCH MARKET"}, "type": "Feature"}, {"geometry": {"coordinates": [-122.284774, 37.846819], "type": "Point"}, "properties": {"address": "6334 SAN PABLO AVE OAKLAND, CA 94608", "grade": "g", "inspection_date": "2019-05-06", "name": "ACTUAL CAFE"}, "type": "Feature"}, {"geometry": {"coordinates": [-121.777351, 37.680467], "type": "Point"}, "properties": {"address": "1554 FIRST ST LIVERMORE, CA 94550", "grade": "g", "inspection_date": "2018-04-19", "name": "ADVANTAGE FOOD SAMPLING PROGRAM @ SAFEWAY #910"}, "type": "Feature"}, {"geometry": {"coordinates": [-121.777351, 37.680467], "type": "Point"}, "properties": {"address": "1554 FIRST ST LIVERMORE, CA 94550", "grade": "g", "inspection_date": "2017-01-25", "name": "AFC SUSHI @ SAFEWAY #910"}, "type": "Feature"}, {"geometry": {"coordinates": [-122.075802, 37.632358], "type": "Point"}, "properties": {"address": "27521 TAMPA AVE HAYWARD, CA 94544", "grade": "g", "inspection_date": "2014-03-17", "name": "AFGHAN MARKET"}, "type": "Feature"}, {"geometry": {"coordinates": [-122.254729, 37.799233], "type": "Point"}, "properties": {"address": "1603 2ND AVE OAKLAND, CA 94606", "grade": "g", "inspection_date": "2016-12-09", "name": "A-KAT CAFE KALLI"}, "type": "Feature"}, {"geometry": {"coordinates": [-121.888555, 37.661991], "type": "Point"}, "properties": {"address": "4501 PLEASANTON AVE PLEASANTON, CA 94566", "grade": "g", "inspection_date": "2013-07-24", "name": "ALAMEDA COUNTY FAIR-SAT WGRING SNAC"}, "type": "Feature"}, {"geometry": {"coordinates": [-122.276714, 37.774445], "type": "Point"}, "properties": {"address": "1538 WEBSTER ST ALAMEDA, CA 94501", "grade": " ", "inspection_date": "2015-03-24", "name": "ALAMEDA PIZZA"}, "type": "Feature"}, {"geometry": {"coordinates": [-122.301079, 37.896191], "type": "Point"}, "properties": {"address": "540 SAN PABLO AVE ALBANY, CA 94706", "grade": "g", "inspection_date": "2013-08-29", "name": "ALBANY BOWL BAR"}, "type": "Feature"}, {"geometry": {"coordinates": [-122.295346, 37.897675], "type": "Point"}, "properties": {"address": "1259 BRIGHTON ST ALBANY, CA 94706", "grade": "g", "inspection_date": "2013-11-13", "name": "ALBANY MIDDLE SCHOOL"}, "type": "Feature"}, {"geometry": {"coordinates": [-121.873238, 37.66802], "type": "Point"}, "properties": {"address": "1155 SANTA RITA RD PLEASANTON, CA 94566", "grade": "g", "inspection_date": "2018-03-29", "name": "AMADOR HIGH SCHOOL"}, "type": "Feature"}, {"geometry": {"coordinates": [-122.268281, 37.814126], "type": "Point"}, "properties": {"address": "2427 TELEGRAPH AVE OAKLAND, CA 94612", "grade": " ", "inspection_date": "2016-12-06", "name": "AMAZONAS PIZZA"}, "type": "Feature"}, {"geometry": {"coordinates": [-122.083239, 37.673603], "type": "Point"}, "properties": {"address": "22530 MAIN ST HAYWARD, CA 94544", "grade": "g", "inspection_date": "2014-05-06", "name": "AMERICANA PIZZA INC"}, "type": "Feature"}, {"geometry": {"coordinates": [-122.166455, 37.730676], "type": "Point"}, "properties": {"address": "300 PARK ST ALAMEDA, CA 94501", "grade": "g", "inspection_date": "2017-12-13", "name": "AMF SOUTHSHORE LANES"}, "type": "Feature"}, {"geometry": {"coordinates": [-122.003105, 37.528376], "type": "Point"}, "properties": {"address": "5988 NEWPARK MALL NEWARK, CA 94560", "grade": "g", "inspection_date": "2013-11-12", "name": "AMMA'S"}, "type": "Feature"}, {"geometry": {"coordinates": [-122.270189, 37.804052], "type": "Point"}, "properties": {"address": "414 14TH ST OAKLAND, CA 94612", "grade": "g", "inspection_date": "2015-05-11", "name": "ANALOG"}, "type": "Feature"}, {"geometry": {"coordinates": [-122.207631, 37.714221], "type": "Point"}, "properties": {"address": "1 AIRPORT DR OAKLAND, CA 94621", "grade": "g", "inspection_date": "2016-12-07", "name": "ANDALE'S SATELLITE ROOM 1151"}, "type": "Feature"}, {"geometry": {"coordinates": [-121.952909, 37.515017], "type": "Point"}, "properties": {"address": "39990 FREMONT BLVD FREMONT, CA 94538", "grade": "g", "inspection_date": "2017-03-28", "name": "ANDY'S VALERO"}, "type": "Feature"}, {"geometry": {"coordinates": [-122.243827, 37.762819], "type": "Point"}, "properties": {"address": "1319 PARK ST ALAMEDA, CA 94501", "grade": "g", "inspection_date": "2015-09-30", "name": "ANGKOR GRILL"}, "type": "Feature"}, {"geometry": {"coordinates": [-121.987523, 37.549626], "type": "Point"}, "properties": {"address": "3810 MOWRY AVE FREMONT, CA 94538", "grade": "y", "inspection_date": "2013-12-11", "name": "ANIKI'S SUSHI"}, "type": "Feature"}, {"geometry": {"coordinates": [-122.024304, 37.530649], "type": "Point"}, "properties": {"address": "5486 CENTRAL AVE NEWARK, CA 94560", "grade": "y", "inspection_date": "2013-06-24", "name": "ANNY'S FAMILY RESTAURANT"}, "type": "Feature"}, {"geometry": {"coordinates": [-122.270388, 37.803384], "type": "Point"}, "properties": {"address": "1319 FRANKLIN ST OAKLAND, CA 94612", "grade": "g", "inspection_date": "2018-06-06", "name": "ANUL'S CAFE"}, "type": "Feature"}, {"geometry": {"coordinates": [-121.750587, 37.69203], "type": "Point"}, "properties": {"address": "4301 N FIRST ST LIVERMORE, CA 94550", "grade": "y", "inspection_date": "2013-11-14", "name": "APPLEBEES"}, "type": "Feature"}, {"geometry": {"coordinates": [-122.023704, 37.540784], "type": "Point"}, "properties": {"address": "39201 CEDAR BLVD NEWARK, CA 94560", "grade": "g", "inspection_date": "2013-05-10", "name": "ARBY'S"}, "type": "Feature"}, {"geometry": {"coordinates": [-122.232992, 37.804592], "type": "Point"}, "properties": {"address": "3310 PARK BLVD OAKLAND, CA 94610", "grade": "g", "inspection_date": "2013-05-14", "name": "ARCO AM PM"}, "type": "Feature"}, {"geometry": {"coordinates": [-122.202932, 37.750273], "type": "Point"}, "properties": {"address": "7000 COLISEUM WAY OAKLAND, CA 94621", "grade": "g", "inspection_date": "2014-10-29", "name": "ARENA MC LEVEL #109B"}, "type": "Feature"}, {"geometry": {"coordinates": [-122.202932, 37.750273], "type": "Point"}, "properties": {"address": "7000 COLISEUM WAY OAKLAND, CA 94621", "grade": "g", "inspection_date": "2014-07-18", "name": "ARENA MC LEVEL #VR33S"}, "type": "Feature"}, {"geometry": {"coordinates": [-122.202932, 37.750273], "type": "Point"}, "properties": {"address": "7000 COLISEUM WAY OAKLAND, CA 94621", "grade": "g", "inspection_date": "2014-05-27", "name": "ARENA UC LEVEL #A215"}, "type": "Feature"}, {"geometry": {"coordinates": [-122.02792, 37.539958], "type": "Point"}, "properties": {"address": "5524 THORNTON AVE NEWARK, CA 94560", "grade": "y", "inspection_date": "2014-04-29", "name": "ARTEAGAS FOOD CENTER"}, "type": "Feature"}, {"geometry": {"coordinates": [-122.098276, 37.633538], "type": "Point"}, "properties": {"address": "26930 HESPERIAN BLVD HAYWARD, CA 94545", "grade": "g", "inspection_date": "2013-03-14", "name": "ASIA DELIGHT #4"}, "type": "Feature"}, {"geometry": {"coordinates": [-122.162878, 37.711826], "type": "Point"}, "properties": {"address": "1209 MARINA BLVD SAN LEANDRO, CA 94579", "grade": "g", "inspection_date": "2014-12-15", "name": "STARBUCKS #5545"}, "type": "Feature"}, {"geometry": {"coordinates": [-122.265341, 37.813634], "type": "Point"}, "properties": {"address": "2430 BROADWAY OAKLAND, CA 94612", "grade": "g", "inspection_date": "2016-08-12", "name": "AU LOUNGE"}, "type": "Feature"}, {"geometry": {"coordinates": [-122.272375, 37.799847], "type": "Point"}, "properties": {"address": "812 FRANKLIN ST OAKLAND, CA 94607", "grade": "r", "inspection_date": "2015-04-06", "name": "BA LE FRENCH COFFEE SHOP"}, "type": "Feature"}, {"geometry": {"coordinates": [-122.005979, 37.557751], "type": "Point"}, "properties": {"address": "37422 FREMONT BLVD FREMONT, CA 94536", "grade": "g", "inspection_date": "2014-07-11", "name": "BACK DOOR LOUNGE"}, "type": "Feature"}, {"geometry": {"coordinates": [-122.252476, 37.826242], "type": "Point"}, "properties": {"address": "4070 PIEDMONT AVE OAKLAND, CA 94611", "grade": "g", "inspection_date": "2012-10-31", "name": "BAJA TAQUERIA"}, "type": "Feature"}, {"geometry": {"coordinates": [-122.034267, 37.605944], "type": "Point"}, "properties": {"address": "1854 WHIPPLE RD UNION CITY, CA 94587", "grade": "g", "inspection_date": "2019-08-27", "name": "BAKERY-TAQUERIA UNO"}, "type": "Feature"}, {"geometry": {"coordinates": [-121.978711, 37.550828], "type": "Point"}, "properties": {"address": "3241 WALNUT AVE FREMONT, CA 94538", "grade": "g", "inspection_date": "2012-12-04", "name": "BASIL LEAF ASIAN CUISINE"}, "type": "Feature"}, {"geometry": {"coordinates": [-121.77919, 37.678476], "type": "Point"}, "properties": {"address": "4323 FIRST ST LIVERMORE, CA 94551", "grade": "g", "inspection_date": "2012-09-19", "name": "BASKIN ROBBINS"}, "type": "Feature"}, {"geometry": {"coordinates": [-122.254758, 37.824495], "type": "Point"}, "properties": {"address": "3853 PIEDMONT AVE OAKLAND, CA 94611", "grade": "g", "inspection_date": "2012-10-08", "name": "BAY WOLF RESTAURANT"}, "type": "Feature"}, {"geometry": {"coordinates": [-122.26563, 37.811068], "type": "Point"}, "properties": {"address": "2225 WEBSTER ST OAKLAND, CA 94612", "grade": "g", "inspection_date": "2017-03-01", "name": "BAYGREENS"}, "type": "Feature"}, {"geometry": {"coordinates": [-122.233756, 37.768718], "type": "Point"}, "properties": {"address": "2601 BLANDING AVE B ALAMEDA, CA 94501", "grade": "g", "inspection_date": "2017-03-23", "name": "BB BOWL"}, "type": "Feature"}, {"geometry": {"coordinates": [-121.818612, 37.703304], "type": "Point"}, "properties": {"address": "1051 AIRWAY BLVD LIVERMORE, CA 94550", "grade": "g", "inspection_date": "2018-10-16", "name": "BERNARD'S CHEVRON"}, "type": "Feature"}, {"geometry": {"coordinates": [-122.272369, 37.799857], "type": "Point"}, "properties": {"address": "814 FRANKLIN ST OAKLAND, CA 94607", "grade": "y", "inspection_date": "2013-03-14", "name": "BEST TASTE RESTAURANT"}, "type": "Feature"}, {"geometry": {"coordinates": [-122.25797, 37.82834], "type": "Point"}, "properties": {"address": "360 40TH ST OAKLAND, CA 94609", "grade": "g", "inspection_date": "2019-02-27", "name": "BIERHAUS"}, "type": "Feature"}, {"geometry": {"coordinates": [-122.083318, 37.672378], "type": "Point"}, "properties": {"address": "943 B ST HAYWARD, CA 94541", "grade": "g", "inspection_date": "2019-07-29", "name": "BLUE COLT CLUB"}, "type": "Feature"}, {"geometry": {"coordinates": [-122.254349, 37.766825], "type": "Point"}, "properties": {"address": "1910 ENCINAL AVE ALAMEDA, CA 94501", "grade": "g", "inspection_date": "2017-06-12", "name": "BLUE DOT CAFE AND COFFEE BAR"}, "type": "Feature"}, {"geometry": {"coordinates": [-122.125285, 37.669577], "type": "Point"}, "properties": {"address": "800 BOCKMAN RD SAN LORENZO, CA 94580", "grade": "g", "inspection_date": "2012-09-04", "name": "BOHANNON MIDDLE SCHOOL"}, "type": "Feature"}, {"geometry": {"coordinates": [-122.007176, 37.525891], "type": "Point"}, "properties": {"address": "5995 MOWRY AVE NEWARK, CA 94560", "grade": "g", "inspection_date": "2015-10-20", "name": "BOMBAY GARDEN"}, "type": "Feature"}, {"geometry": {"coordinates": [-121.922852, 37.495863], "type": "Point"}, "properties": {"address": "46695 MISSION BLVD FREMONT, CA 94539", "grade": "g", "inspection_date": "2016-10-13", "name": "BOP"}, "type": "Feature"}, {"geometry": {"coordinates": [-122.251934, 37.835146], "type": "Point"}, "properties": {"address": "5152 BROADWAY OAKLAND, CA 94618", "grade": "g", "inspection_date": "2015-03-30", "name": "BOSTON MARKET #1297"}, "type": "Feature"}, {"geometry": {"coordinates": [-122.15246, 37.754031], "type": "Point"}, "properties": {"address": "3151 98TH AVE OAKLAND, CA 94605", "grade": "g", "inspection_date": "2016-02-24", "name": "BOTTLENECK LIQUORS"}, "type": "Feature"}, {"geometry": {"coordinates": [-122.276409, 37.797136], "type": "Point"}, "properties": {"address": "468 3RD ST OAKLAND, CA 94607", "grade": "y", "inspection_date": "2018-04-04", "name": "BOXICHEF"}, "type": "Feature"}, {"geometry": {"coordinates": [-122.250647, 37.837208], "type": "Point"}, "properties": {"address": "5300 BROADWAY AVE OAKLAND, CA 94618", "grade": " ", "inspection_date": "2013-08-12", "name": "BROADWAY 76"}, "type": "Feature"}, {"geometry": {"coordinates": [-121.971082, 37.522519], "type": "Point"}, "properties": {"address": "41200 BLACOW RD #D FREMONT, CA 94538", "grade": "g", "inspection_date": "2016-07-20", "name": "BRONCO BILLY'S PIZZA PALACE"}, "type": "Feature"}, {"geometry": {"coordinates": [-122.262499, 37.836499], "type": "Point"}, "properties": {"address": "6419 TELEGRAPH AVE OAKLAND, CA 94609", "grade": "r", "inspection_date": "2018-04-23", "name": "BRUNDO MEATS & DELI"}, "type": "Feature"}, {"geometry": {"coordinates": [-122.284016, 37.844069], "type": "Point"}, "properties": {"address": "3301 SAN PABLO AVE OAKLAND, CA 94608", "grade": "g", "inspection_date": "2013-09-10", "name": "B-SIDE BBQ"}, "type": "Feature"}, {"geometry": {"coordinates": [-121.773968, 37.6802], "type": "Point"}, "properties": {"address": "1790 N FIRST ST LIVERMORE, CA 94550", "grade": "g", "inspection_date": "2016-05-26", "name": "BUFFALO WILD WINGS"}, "type": "Feature"}, {"geometry": {"coordinates": [-122.224474, 37.793691], "type": "Point"}, "properties": {"address": "2370 GRANDE VISTA OAKLAND, CA 94601", "grade": "g", "inspection_date": "2014-10-02", "name": "BUILDING BLOCKS"}, "type": "Feature"}, {"geometry": {"coordinates": [-122.2432, 37.792374], "type": "Point"}, "properties": {"address": "1326 E 18TH ST OAKLAND, CA 94606", "grade": "g", "inspection_date": "2014-12-04", "name": "BUN MAM SOC TRANG"}, "type": "Feature"}, {"geometry": {"coordinates": [-122.086765, 37.69415], "type": "Point"}, "properties": {"address": "2757 CASTRO VALLEY BLVD CASTRO VALLEY, CA 94546", "grade": "g", "inspection_date": "2018-05-23", "name": "BURGER KING #977"}, "type": "Feature"}, {"geometry": {"coordinates": [-121.723543, 37.708505], "type": "Point"}, "properties": {"address": "128 S VASCO RD LIVERMORE, CA 94551", "grade": "g", "inspection_date": "2015-06-19", "name": "C & A MINI MART & DELI"}, "type": "Feature"}, {"geometry": {"coordinates": [-122.269302, 37.813487], "type": "Point"}, "properties": {"address": "531 24TH ST OAKLAND, CA 94612", "grade": "g", "inspection_date": "2013-05-06", "name": "C U R A"}, "type": "Feature"}, {"geometry": {"coordinates": [-121.982453, 37.529333], "type": "Point"}, "properties": {"address": "4949 STEVENSON BLVD #L FREMONT, CA 94538", "grade": "g", "inspection_date": "2015-12-16", "name": "CABRILLO PARK CAFE"}, "type": "Feature"}, {"geometry": {"coordinates": [-122.11747, 37.664473], "type": "Point"}, "properties": {"address": "19450 HESPERIAN BLVD HAYWARD, CA 94541", "grade": "g", "inspection_date": "2014-11-19", "name": "CAESAR'S CHICKEN"}, "type": "Feature"}, {"geometry": {"coordinates": [-122.204676, 37.797288], "type": "Point"}, "properties": {"address": "3016 MACARTHUR BLVD OAKLAND, CA 94602", "grade": "g", "inspection_date": "2014-03-11", "name": "CAFE 3016"}, "type": "Feature"}, {"geometry": {"coordinates": [-121.99101, 37.521438], "type": "Point"}, "properties": {"address": "39941 BALENTINE DR NEWARK, CA 94560", "grade": "y", "inspection_date": "2013-02-01", "name": "CAFE GYROS"}, "type": "Feature"}, {"geometry": {"coordinates": [-122.276754, 37.773302], "type": "Point"}, "properties": {"address": "1500 WEBSTER ST ALAMEDA, CA 94501", "grade": "g", "inspection_date": "2018-11-19", "name": "CAFE JOLIE"}, "type": "Feature"}, {"geometry": {"coordinates": [-122.155156, 37.722852], "type": "Point"}, "properties": {"address": "1501 WASHINGTON AVE SAN LEANDRO, CA 94577", "grade": "g", "inspection_date": "2012-11-27", "name": "CAFE SORRISO"}, "type": "Feature"}, {"geometry": {"coordinates": [-121.862612, 37.668954], "type": "Point"}, "properties": {"address": "3550 STANLEY BLVD 3 PLEASANTON, CA 94566", "grade": "g", "inspection_date": "2014-11-12", "name": "CAFE TAIWAN"}, "type": "Feature"}, {"geometry": {"coordinates": [-122.253616, 37.793953], "type": "Point"}, "properties": {"address": "649 E 12TH ST #A OAKLAND, CA 94606", "grade": "r", "inspection_date": "2016-11-17", "name": "CAFE TV"}, "type": "Feature"}, {"geometry": {"coordinates": [-122.245133, 37.818401], "type": "Point"}, "properties": {"address": "3917 GRAND AVE OAKLAND, CA 94610", "grade": "g", "inspection_date": "2018-10-23", "name": "CAMINO RESTAURANT"}, "type": "Feature"}, {"geometry": {"coordinates": [-122.112997, 37.665972], "type": "Point"}, "properties": {"address": "692 W A ST HAYWARD, CA 94541", "grade": "g", "inspection_date": "2018-09-11", "name": "CARMEN & FAMILY BBQ"}, "type": "Feature"}, {"geometry": {"coordinates": [-121.807032, 37.652809], "type": "Point"}, "properties": {"address": "410 VINEYARD AVE PLEASANTON, CA 94566", "grade": "g", "inspection_date": "2015-09-28", "name": "CASA REAL"}, "type": "Feature"}, {"geometry": {"coordinates": [-121.98418, 37.527066], "type": "Point"}, "properties": {"address": "6092 STEVENSON BLVD FREMONT, CA 94538", "grade": "g", "inspection_date": "2018-05-16", "name": "CASA RESTAURANT"}, "type": "Feature"}, {"geometry": {"coordinates": [-122.199921, 37.792982], "type": "Point"}, "properties": {"address": "8601 MACARTHUR BLVD OAKLAND, CA 94601", "grade": "c", "inspection_date": "2016-06-10", "name": "CASTLEMONT HIGH SCHOOL"}, "type": "Feature"}, {"geometry": {"coordinates": [-122.0763, 37.70509], "type": "Point"}, "properties": {"address": "19400 SANTA MARIA AVE CASTRO VALLEY, CA 94546", "grade": " ", "inspection_date": "2013-04-25", "name": "CASTRO VALLEY HS ATHELETIC STADIUM"}, "type": "Feature"}, {"geometry": {"coordinates": [-122.075447, 37.695544], "type": "Point"}, "properties": {"address": "3519 CASTRO VALLEY BLVD CASTRO VALLEY, CA 94546", "grade": "g", "inspection_date": "2013-06-19", "name": "CASTRO VALLEY SHELL"}, "type": "Feature"}, {"geometry": {"coordinates": [-122.086698, 37.696425], "type": "Point"}, "properties": {"address": "20388 LAKE CHABOT RD CASTRO VALLEY, CA 94546", "grade": "g", "inspection_date": "2015-03-06", "name": "CHABOT LIQUORS"}, "type": "Feature"}, {"geometry": {"coordinates": [-121.920505, 37.476574], "type": "Point"}, "properties": {"address": "47894 WARM SPRINGS BLVD FREMONT, CA 94539", "grade": "g", "inspection_date": "2018-12-20", "name": "CHEF CHAI"}, "type": "Feature"}, {"geometry": {"coordinates": [-122.102391, 37.666469], "type": "Point"}, "properties": {"address": "1169 W A ST HAYWARD, CA 94541", "grade": "g", "inspection_date": "2017-05-23", "name": "CHEF MING EXPRESS"}, "type": "Feature"}, {"geometry": {"coordinates": [-122.150841, 37.733762], "type": "Point"}, "properties": {"address": "600 DUTTON AVE A SAN LEANDRO, CA 94577", "grade": "g", "inspection_date": "2015-01-09", "name": "CHEF MING"}, "type": "Feature"}, {"geometry": {"coordinates": [-122.276793, 37.777689], "type": "Point"}, "properties": {"address": "1821 WEBSTER ST ALAMEDA, CA 94501", "grade": "y", "inspection_date": "2019-06-24", "name": "CHEF'S WOK"}, "type": "Feature"}, {"geometry": {"coordinates": [-121.952909, 37.515017], "type": "Point"}, "properties": {"address": "39206 FREMONT BLVD FREMONT, CA 94538", "grade": "y", "inspection_date": "2013-06-06", "name": "CHERRY GARDEN RESTAURANT"}, "type": "Feature"}, {"geometry": {"coordinates": [-122.161278, 37.723817], "type": "Point"}, "properties": {"address": "589 DAVIS ST SAN LEANDRO, CA 94577", "grade": "g", "inspection_date": "2012-08-20", "name": "CHEVRON XTRA OIL COMPANY"}, "type": "Feature"}, {"geometry": {"coordinates": [-122.285753, 37.84994], "type": "Point"}, "properties": {"address": "6706 SAN PABLO AVE OAKLAND, CA 94608", "grade": "g", "inspection_date": "2013-10-25", "name": "CHILES JALAPENOS"}, "type": "Feature"}, {"geometry": {"coordinates": [-122.256684, 37.827904], "type": "Point"}, "properties": {"address": "4021 BROADWAY OAKLAND, CA 94611", "grade": "r", "inspection_date": "2014-05-24", "name": "CHINA HUT"}, "type": "Feature"}, {"geometry": {"coordinates": [-122.130751, 37.706732], "type": "Point"}, "properties": {"address": "13780 E 14TH ST SAN LEANDRO, CA 94578", "grade": "y", "inspection_date": "2015-10-13", "name": "CHINA KITCHEN EXPRESS"}, "type": "Feature"}, {"geometry": {"coordinates": [-121.724361, 37.717893], "type": "Point"}, "properties": {"address": "1460 N VASCO RD LIVERMORE, CA 94550", "grade": "g", "inspection_date": "2013-01-10", "name": "CHINA PAVILION RESTAURANT"}, "type": "Feature"}, {"geometry": {"coordinates": [-122.272475, 37.799584], "type": "Point"}, "properties": {"address": "399 8TH ST OAKLAND, CA 94607", "grade": " ", "inspection_date": "2012-06-29", "name": "CHINA STAR EXPRESS"}, "type": "Feature"}, {"geometry": {"coordinates": [-121.981702, 37.554374], "type": "Point"}, "properties": {"address": "2760 MOWRY AVE FREMONT, CA 94538", "grade": "g", "inspection_date": "2014-09-17", "name": "CHIPOTLE MEXICAN GRILL"}, "type": "Feature"}, {"geometry": {"coordinates": [-122.251488, 37.838086], "type": "Point"}, "properties": {"address": "5295 COLLEGE AVE #A OAKLAND, CA 94618", "grade": "g", "inspection_date": "2016-10-31", "name": "CHRISTOPHER'S BURGERS"}, "type": "Feature"}, {"geometry": {"coordinates": [-121.999554, 37.534925], "type": "Point"}, "properties": {"address": "5144 MOWRY AVE FREMONT, CA 94538", "grade": "g", "inspection_date": "2015-12-01", "name": "TASTE OF INDIA"}, "type": "Feature"}, {"geometry": {"coordinates": [-122.191362, 37.770866], "type": "Point"}, "properties": {"address": "7301 BANCROFT AVE OAKLAND, CA 94621", "grade": "g", "inspection_date": "2015-04-16", "name": "CHURCH'S CHICKEN"}, "type": "Feature"}, {"geometry": {"coordinates": [-121.995909, 37.539533], "type": "Point"}, "properties": {"address": "3352 MOWRY AVE FREMONT, CA 94538", "grade": "g", "inspection_date": "2016-05-23", "name": "CHUTNEY RESTAURANT"}, "type": "Feature"}, {"geometry": {"coordinates": [-122.074035, 37.702693], "type": "Point"}, "properties": {"address": "20925 REDWOOD RD CASTRO VALLEY, CA 94546", "grade": "g", "inspection_date": "2012-12-19", "name": "TACO BELL #554"}, "type": "Feature"}, {"geometry": {"coordinates": [-122.070798, 37.650493], "type": "Point"}, "properties": {"address": "414 W HARDER RD HAYWARD, CA 94544", "grade": "g", "inspection_date": "2018-07-31", "name": "CIGARETTES OUTLET SMOKE SHOP"}, "type": "Feature"}, {"geometry": {"coordinates": [-122.243943, 37.764827], "type": "Point"}, "properties": {"address": "2301 CENTRAL AVE ALAMEDA, CA 94501", "grade": "g", "inspection_date": "2015-05-19", "name": "CINEMA GRILL"}, "type": "Feature"}, {"geometry": {"coordinates": [-121.96158, 37.542483], "type": "Point"}, "properties": {"address": "39707 PASEO PADRE PKWY FREMONT, CA 94538", "grade": "g", "inspection_date": "2016-06-21", "name": "CIVIC CENTER CHEVRON"}, "type": "Feature"}, {"geometry": {"coordinates": [-122.285345, 37.799551], "type": "Point"}, "properties": {"address": "101 MYRTLE ST OAKLAND, CA 94607", "grade": "y", "inspection_date": "2014-09-29", "name": "CIVICORPS ACADEMY"}, "type": "Feature"}, {"geometry": {"coordinates": [-121.767285, 37.682952], "type": "Point"}, "properties": {"address": "2417 FIRST ST LIVERMORE, CA 94550", "grade": "r", "inspection_date": "2019-08-01", "name": "CLAY OVEN RESTAURANT AND BAR"}, "type": "Feature"}, {"geometry": {"coordinates": [-122.153972, 37.72141], "type": "Point"}, "properties": {"address": "1680 WASHINGTON AVE SAN LEANDRO, CA 94577", "grade": "g", "inspection_date": "2016-05-04", "name": "CLIMAX SPORTS BAR"}, "type": "Feature"}, {"geometry": {"coordinates": [-121.906791, 37.693485], "type": "Point"}, "properties": {"address": "4900 JOHNSON DR PLEASANTON, CA 94588", "grade": "g", "inspection_date": "2017-12-19", "name": "CLOROX"}, "type": "Feature"}, {"geometry": {"coordinates": [-122.299438, 37.892199], "type": "Point"}, "properties": {"address": "752 SAN PABLO AVE ALBANY, CA 94706", "grade": "g", "inspection_date": "2014-08-18", "name": "CLUB MALLARD"}, "type": "Feature"}, {"geometry": {"coordinates": [-121.998581, 37.536131], "type": "Point"}, "properties": {"address": "5010 MOWRY AVE FREMONT, CA 94538", "grade": "g", "inspection_date": "2016-09-27", "name": "COCO CHICKEN"}, "type": "Feature"}, {"geometry": {"coordinates": [-121.931857, 37.493737], "type": "Point"}, "properties": {"address": "46121 WARM SPRINGS BLVD FREMONT, CA 94539", "grade": "g", "inspection_date": "2018-07-17", "name": "COCONUT HILL WAREHOUSE"}, "type": "Feature"}, {"geometry": {"coordinates": [-121.773108, 37.697771], "type": "Point"}, "properties": {"address": "2252 LAS POSITAS LIVERMORE, CA 94551", "grade": "g", "inspection_date": "2017-01-27", "name": "COLD STONE CREAMERY #375"}, "type": "Feature"}, {"geometry": {"coordinates": [-122.252825, 37.850214], "type": "Point"}, "properties": {"address": "307 63RD ST OAKLAND, CA 94618", "grade": "g", "inspection_date": "2017-02-17", "name": "COLE COFFEE"}, "type": "Feature"}, {"geometry": {"coordinates": [-122.199878, 37.765278], "type": "Point"}, "properties": {"address": "8999 INTERNATIONAL BLVD OAKLAND, CA 94621", "grade": "y", "inspection_date": "2017-05-04", "name": "COLISEUM PIZZA"}, "type": "Feature"}, {"geometry": {"coordinates": [-122.202932, 37.750273], "type": "Point"}, "properties": {"address": "7000 COLISEUM WAY OAKLAND, CA 94621", "grade": "g", "inspection_date": "2017-08-16", "name": "COLISEUM WEST #111"}, "type": "Feature"}, {"geometry": {"coordinates": [-122.202932, 37.750273], "type": "Point"}, "properties": {"address": "7000 COLISEUM WAY OAKLAND, CA 94621", "grade": "y", "inspection_date": "2015-01-24", "name": "COLISEUM WEST CLUB BAR"}, "type": "Feature"}, {"geometry": {"coordinates": [-122.202932, 37.750273], "type": "Point"}, "properties": {"address": "7000 COLISEUM WAY OAKLAND, CA 94621", "grade": "g", "inspection_date": "2014-12-22", "name": "COLISEUM WEST V3"}, "type": "Feature"}, {"geometry": {"coordinates": [-122.268731, 37.805643], "type": "Point"}, "properties": {"address": "1632 FRANKLIN ST OAKLAND, CA 94612", "grade": "g", "inspection_date": "2013-08-06", "name": "COLONIAL DONUTS"}, "type": "Feature"}, {"geometry": {"coordinates": [-122.283328, 37.80272], "type": "Point"}, "properties": {"address": "1498 7TH ST #B OAKLAND, CA 94607", "grade": "y", "inspection_date": "2012-11-05", "name": "COMALAPA RESTAURANT"}, "type": "Feature"}, {"geometry": {"coordinates": [-122.194838, 37.74086], "type": "Point"}, "properties": {"address": "8452 EDES AVE OAKLAND, CA 94621", "grade": "g", "inspection_date": "2014-05-02", "name": "COMFORT INN"}, "type": "Feature"}, {"geometry": {"coordinates": [-122.196282, 37.788615], "type": "Point"}, "properties": {"address": "4171 MACARTHUR BLVD OAKLAND, CA 94619", "grade": "g", "inspection_date": "2017-04-05", "name": "COMMUNITE TABLE"}, "type": "Feature"}, {"geometry": {"coordinates": [-122.292438, 37.835138], "type": "Point"}, "properties": {"address": "5645 BAY ST EMERYVILLE, CA 94608", "grade": " ", "inspection_date": "2014-01-21", "name": "CORNOLOGY"}, "type": "Feature"}, {"geometry": {"coordinates": [-122.023704, 37.540784], "type": "Point"}, "properties": {"address": "39193 CEDAR BLVD NEWARK, CA 94560", "grade": "y", "inspection_date": "2013-10-28", "name": "COUSIN CAFE"}, "type": "Feature"}, {"geometry": {"coordinates": [-122.283517, 37.801417], "type": "Point"}, "properties": {"address": "2630 5TH ST #A ALAMEDA, CA 94501", "grade": "g", "inspection_date": "2017-10-17", "name": "CREAM"}, "type": "Feature"}, {"geometry": {"coordinates": [-122.162878, 37.711826], "type": "Point"}, "properties": {"address": "1209 MARINA BLVD SAN LEANDRO, CA 94579", "grade": "g", "inspection_date": "2018-03-30", "name": "STARBUCKS #5545"}, "type": "Feature"}, {"geometry": {"coordinates": [-122.251048, 37.827019], "type": "Point"}, "properties": {"address": "4184 PIEDMONT AVE E OAKLAND, CA 94611", "grade": "g", "inspection_date": "2018-05-23", "name": "CREPEVINE RESTAURANT"}, "type": "Feature"}, {"geometry": {"coordinates": [-122.27679, 37.77157], "type": "Point"}, "properties": {"address": "705 CENTRAL AVE ALAMEDA, CA 94501", "grade": "g", "inspection_date": "2014-04-17", "name": "CROLL'S PIZZA"}, "type": "Feature"}, {"geometry": {"coordinates": [-122.057925, 37.596636], "type": "Point"}, "properties": {"address": "32083 ALVARADO NILES RD UNION CITY, CA 94587", "grade": "y", "inspection_date": "2018-08-15", "name": "CROWNE PLAZA"}, "type": "Feature"}, {"geometry": {"coordinates": [-121.927609, 37.492133], "type": "Point"}, "properties": {"address": "46445 MISSION BLVD FREMONT, CA 94539", "grade": "g", "inspection_date": "2014-11-07", "name": "CVS PHARMACY # 9234"}, "type": "Feature"}, {"geometry": {"coordinates": [-122.152848, 37.723528], "type": "Point"}, "properties": {"address": "1550 E 14TH ST SAN LEANDRO, CA 94577", "grade": "g", "inspection_date": "2019-02-04", "name": "CVS/PHARMACY #9635"}, "type": "Feature"}, {"geometry": {"coordinates": [-122.272013, 37.799589], "type": "Point"}, "properties": {"address": "378 8TH ST #A OAKLAND, CA 94607", "grade": "y", "inspection_date": "2013-03-04", "name": "D & K MARKET INC"}, "type": "Feature"}, {"geometry": {"coordinates": [-121.746868, 37.680045], "type": "Point"}, "properties": {"address": "4086 EAST AVE LIVERMORE, CA 94550", "grade": "g", "inspection_date": "2012-07-26", "name": "DANDY DOGS"}, "type": "Feature"}, {"geometry": {"coordinates": [-122.276777, 37.771456], "type": "Point"}, "properties": {"address": "1401 WEBSTER ST ALAMEDA, CA 94501", "grade": "g", "inspection_date": "2013-08-08", "name": "DAVE'S LIQUORS"}, "type": "Feature"}, {"geometry": {"coordinates": [-122.076854, 37.631467], "type": "Point"}, "properties": {"address": "1163 W TENNYSON RD HAYWARD, CA 94544", "grade": "g", "inspection_date": "2018-07-19", "name": "DD'S DISCOUNTS"}, "type": "Feature"}, {"geometry": {"coordinates": [-121.874838, 37.661933], "type": "Point"}, "properties": {"address": "620 MAIN ST PLEASANTON, CA 94566", "grade": "g", "inspection_date": "2013-06-11", "name": "DEAN'S CAFE"}, "type": "Feature"}, {"geometry": {"coordinates": [-121.768334, 37.681599], "type": "Point"}, "properties": {"address": "2235 FIRST ST LIVERMORE, CA 94550", "grade": "g", "inspection_date": "2017-04-18", "name": "DEMITRIS KAPLANIS"}, "type": "Feature"}, {"geometry": {"coordinates": [-121.724353, 37.718196], "type": "Point"}, "properties": {"address": "1524 N VASCO RD LIVERMORE, CA 94551", "grade": "g", "inspection_date": "2016-12-16", "name": "DICKEY'S BARBECUE PIT"}, "type": "Feature"}, {"geometry": {"coordinates": [-122.2162, 37.799804], "type": "Point"}, "properties": {"address": "3430 FRUITVALE AVE OAKLAND, CA 94602", "grade": "g", "inspection_date": "2015-12-31", "name": "DIMOND CAFE"}, "type": "Feature"}, {"geometry": {"coordinates": [-121.978625, 37.550939], "type": "Point"}, "properties": {"address": "3213 WALNUT AVE FREMONT, CA 94538", "grade": " ", "inspection_date": "2017-04-03", "name": "DIN DING DUMPLING HOUSE"}, "type": "Feature"}, {"geometry": {"coordinates": [-122.257471, 37.843095], "type": "Point"}, "properties": {"address": "6200 CLAREMONT AVE OAKLAND, CA 94618", "grade": "r", "inspection_date": "2018-07-24", "name": "DING JAPANESE FOOD"}, "type": "Feature"}, {"geometry": {"coordinates": [-122.244531, 37.761986], "type": "Point"}, "properties": {"address": "1260 PARK ST ALAMEDA, CA 94501", "grade": "g", "inspection_date": "2017-12-19", "name": "DK-ARCO"}, "type": "Feature"}, {"geometry": {"coordinates": [-122.23919, 37.77144], "type": "Point"}, "properties": {"address": "2317 BLANDING AVE A ALAMEDA, CA 94501", "grade": "g", "inspection_date": "2017-11-29", "name": "Dollar Tree #05672"}, "type": "Feature"}, {"geometry": {"coordinates": [-122.151029, 37.721606], "type": "Point"}, "properties": {"address": "1768 E 14TH ST SAN LEANDRO, CA 94577", "grade": "g", "inspection_date": "2012-10-17", "name": "DOMINO'S PIZZA"}, "type": "Feature"}, {"geometry": {"coordinates": [-122.029136, 37.536192], "type": "Point"}, "properties": {"address": "35248 NEWARK BLVD NEWARK, CA 94560", "grade": "g", "inspection_date": "2012-07-03", "name": "DOMINO'S PIZZA"}, "type": "Feature"}, {"geometry": {"coordinates": [-121.76546, 37.684202], "type": "Point"}, "properties": {"address": "2566 OLD FIRST ST LIVERMORE, CA 94550", "grade": "g", "inspection_date": "2019-06-25", "name": "DOMINO'S"}, "type": "Feature"}, {"geometry": {"coordinates": [-122.065716, 37.633183], "type": "Point"}, "properties": {"address": "364 W TENNYSON RD HAYWARD, CA 94544", "grade": "g", "inspection_date": "2018-01-29", "name": "DON GASPACHO"}, "type": "Feature"}, {"geometry": {"coordinates": [-122.076922, 37.696705], "type": "Point"}, "properties": {"address": "3430 VILLAGE DR CASTRO VALLEY, CA 94546", "grade": "g", "inspection_date": "2016-12-08", "name": "DON JOSE'S RESTAURANT"}, "type": "Feature"}, {"geometry": {"coordinates": [-122.06845, 37.632137], "type": "Point"}, "properties": {"address": "669 W TENNYSON RD HAYWARD, CA 94544", "grade": "g", "inspection_date": "2016-02-01", "name": "DON POLVORON"}, "type": "Feature"}, {"geometry": {"coordinates": [-122.06845, 37.632137], "type": "Point"}, "properties": {"address": "669 W TENNYSON RD HAYWARD, CA 94544", "grade": "g", "inspection_date": "2012-07-13", "name": "DON POLVORON"}, "type": "Feature"}, {"geometry": {"coordinates": [-121.906961, 37.684622], "type": "Point"}, "properties": {"address": "4150 DORMAN PLEASANTON, CA 94588", "grade": " ", "inspection_date": "2018-05-22", "name": "DONLAN ELEMENTARY SCHOOL"}, "type": "Feature"}, {"geometry": {"coordinates": [-121.750481, 37.678346], "type": "Point"}, "properties": {"address": "3951 EAST AVE LIVERMORE, CA 94550", "grade": "g", "inspection_date": "2015-03-24", "name": "EAST AVENUE SCHOOL CAFE"}, "type": "Feature"}, {"geometry": {"coordinates": [-122.199878, 37.765278], "type": "Point"}, "properties": {"address": "8432 INTERNATIONAL BLVD OAKLAND, CA 94621", "grade": "g", "inspection_date": "2018-10-31", "name": "EAST BAY MARKET"}, "type": "Feature"}, {"geometry": {"coordinates": [-122.182428, 37.762469], "type": "Point"}, "properties": {"address": "1935 73RD AVE OAKLAND, CA 94602", "grade": "g", "inspection_date": "2013-08-20", "name": "EDDIE'S MARKET"}, "type": "Feature"}, {"geometry": {"coordinates": [-122.107187, 37.63804], "type": "Point"}, "properties": {"address": "2184 THAYER AVE HAYWARD, CA 94545", "grade": "g", "inspection_date": "2017-03-15", "name": "EDEN GARDENS ELEM SCHOOL"}, "type": "Feature"}, {"geometry": {"coordinates": [-122.134796, 37.693206], "type": "Point"}, "properties": {"address": "400 SPRINGLAKE DR SAN LEANDRO, CA 94578", "grade": "g", "inspection_date": "2013-05-29", "name": "EDEN LODGE"}, "type": "Feature"}, {"geometry": {"coordinates": [-122.12092, 37.624731], "type": "Point"}, "properties": {"address": "3541 INVESTMENT BLVD 1 HAYWARD, CA 94545", "grade": "g", "inspection_date": "2014-06-04", "name": "EDEN PLAZA"}, "type": "Feature"}, {"geometry": {"coordinates": [-122.122949, 37.686795], "type": "Point"}, "properties": {"address": "5 E LEWELLING BLVD SAN LORENZO, CA 94580", "grade": "g", "inspection_date": "2018-04-10", "name": "EL MEZCAL, INC."}, "type": "Feature"}, {"geometry": {"coordinates": [-121.851232, 37.705617], "type": "Point"}, "properties": {"address": "3898 FALLON RD DUBLIN, CA 94568", "grade": "g", "inspection_date": "2016-08-10", "name": "EL POLLO LOCO #6138"}, "type": "Feature"}, {"geometry": {"coordinates": [-122.235033, 37.772769], "type": "Point"}, "properties": {"address": "400 29TH AVE OAKLAND, CA 94601", "grade": "g", "inspection_date": "2016-06-16", "name": "EL POTRILLO RESTAURANT & BAR"}, "type": "Feature"}, {"geometry": {"coordinates": [-122.074035, 37.702693], "type": "Point"}, "properties": {"address": "22291 REDWOOD RD CASTRO VALLEY, CA 94546", "grade": "g", "inspection_date": "2018-05-15", "name": "EL RANCHO SUPERMERCADO TAQUERIA"}, "type": "Feature"}, {"geometry": {"coordinates": [-122.070545, 37.589147], "type": "Point"}, "properties": {"address": "4123 DYER ST UNION CITY, CA 94587", "grade": "g", "inspection_date": "2017-03-28", "name": "ELITE BAKERY"}, "type": "Feature"}, {"geometry": {"coordinates": [-122.268056, 37.803043], "type": "Point"}, "properties": {"address": "329 14TH ST OAKLAND, CA 94612", "grade": "y", "inspection_date": "2014-06-19", "name": "EM DELI & CATERING"}, "type": "Feature"}, {"geometry": {"coordinates": [-122.210125, 37.826603], "type": "Point"}, "properties": {"address": "6119 LA SALLE AVE OAKLAND, CA 94611", "grade": "y", "inspection_date": "2019-02-20", "name": "EM DELI & CATERING"}, "type": "Feature"}, {"geometry": {"coordinates": [-121.796449, 37.665932], "type": "Point"}, "properties": {"address": "391 ONTARIO DR LIVERMORE, CA 94550", "grade": "g", "inspection_date": "2017-04-25", "name": "EMMA C SMITH ELEMENTARY SCHOOL"}, "type": "Feature"}, {"geometry": {"coordinates": [-122.130751, 37.706732], "type": "Point"}, "properties": {"address": "13775 E 14TH ST SAN LEANDRO, CA 94578", "grade": "g", "inspection_date": "2018-03-23", "name": "ERNIE'S SEAFOOD"}, "type": "Feature"}, {"geometry": {"coordinates": [-122.07388, 37.69485], "type": "Point"}, "properties": {"address": "20912 REDWOOD RD #A CASTRO VALLEY, CA 94546", "grade": "g", "inspection_date": "2017-02-10", "name": "EUROPEAN MARKET, DELI & CAFE"}, "type": "Feature"}, {"geometry": {"coordinates": [-122.295201, 37.810158], "type": "Point"}, "properties": {"address": "1600 12TH ST OAKLAND, CA 94607", "grade": "g", "inspection_date": "2017-09-27", "name": "FAMILY SUPERMARKET"}, "type": "Feature"}, {"geometry": {"coordinates": [-122.21679, 37.798501], "type": "Point"}, "properties": {"address": "3420 FRUITVALE AVE OAKLAND, CA 94602", "grade": " ", "inspection_date": "2012-06-14", "name": "FARMER JOE'S MARKETPLACE"}, "type": "Feature"}, {"geometry": {"coordinates": [-122.223966, 37.777548], "type": "Point"}, "properties": {"address": "3313 FARNAM ST OAKLAND, CA 94601", "grade": "g", "inspection_date": "2014-12-08", "name": "FARNAM SNACK"}, "type": "Feature"}, {"geometry": {"coordinates": [-122.133915, 37.708963], "type": "Point"}, "properties": {"address": "14701 E 14TH ST SAN LEANDRO, CA 94578", "grade": "r", "inspection_date": "2018-02-09", "name": "FAT FISH"}, "type": "Feature"}, {"geometry": {"coordinates": [-122.133915, 37.708963], "type": "Point"}, "properties": {"address": "14701 E 14TH ST SAN LEANDRO, CA 94578", "grade": "y", "inspection_date": "2012-09-12", "name": "FAT FISH"}, "type": "Feature"}, {"geometry": {"coordinates": [-122.273125, 37.802736], "type": "Point"}, "properties": {"address": "1111 BROADWAY OAKLAND, CA 94607", "grade": "y", "inspection_date": "2012-12-13", "name": "FAZ RESTAURANT AND BAR"}, "type": "Feature"}, {"geometry": {"coordinates": [-122.004445, 37.556953], "type": "Point"}, "properties": {"address": "36974 FREMONT BLVD FREMONT, CA 94536", "grade": "g", "inspection_date": "2016-11-09", "name": "FD GAS"}, "type": "Feature"}, {"geometry": {"coordinates": [-122.038872, 37.529718], "type": "Point"}, "properties": {"address": "7372 THORNTON AVE NEWARK, CA 94560", "grade": "g", "inspection_date": "2019-02-06", "name": "FENG CHA TEAHOUSE"}, "type": "Feature"}, {"geometry": {"coordinates": [-122.195909, 37.763572], "type": "Point"}, "properties": {"address": "6432 INTERNATIONAL BLVD OAKLAND, CA 94621", "grade": "g", "inspection_date": "2019-04-04", "name": "FIESTAS PIZZA"}, "type": "Feature"}, {"geometry": {"coordinates": [-122.161394, 37.723764], "type": "Point"}, "properties": {"address": "898 SAN LEANDRO BLVD SAN LEANDRO, CA 94577", "grade": "g", "inspection_date": "2013-07-15", "name": "FIFTH WHEEL CAFE"}, "type": "Feature"}, {"geometry": {"coordinates": [-122.063442, 37.646696], "type": "Point"}, "properties": {"address": "26661 MISSION BLVD HAYWARD, CA 94544", "grade": "g", "inspection_date": "2012-08-08", "name": "FIJI SWEETS AND SNACKS"}, "type": "Feature"}, {"geometry": {"coordinates": [-122.244917, 37.76152], "type": "Point"}, "properties": {"address": "1231 PARK ST ALAMEDA, CA 94501", "grade": "y", "inspection_date": "2015-05-07", "name": "FIRE DEN/MAMA ROSE'S RECIPES"}, "type": "Feature"}, {"geometry": {"coordinates": [-121.770005, 37.681471], "type": "Point"}, "properties": {"address": "2106 FIRST ST LIVERMORE, CA 94550", "grade": "g", "inspection_date": "2016-11-15", "name": "FIRST STREET ALEHOUSE"}, "type": "Feature"}, {"geometry": {"coordinates": [-121.770005, 37.681471], "type": "Point"}, "properties": {"address": "2106 FIRST ST LIVERMORE, CA 94550", "grade": "g", "inspection_date": "2019-08-21", "name": "FIRST STREET ALEHOUSE"}, "type": "Feature"}, {"geometry": {"coordinates": [-122.019915, 37.586382], "type": "Point"}, "properties": {"address": "34579 ALVARADO NILES RD UNION CITY, CA 94587", "grade": "g", "inspection_date": "2019-06-04", "name": "FIVE RIVERS"}, "type": "Feature"}, {"geometry": {"coordinates": [-122.232992, 37.804592], "type": "Point"}, "properties": {"address": "2900 PARK BLVD OAKLAND, CA 94610", "grade": "g", "inspection_date": "2012-12-03", "name": "FOOD 24-HR CONVENIENCE"}, "type": "Feature"}, {"geometry": {"coordinates": [-122.063849, 37.614049], "type": "Point"}, "properties": {"address": "1681 DELTA CT HAYWARD, CA 94544", "grade": "g", "inspection_date": "2018-06-26", "name": "FOOD DEPOT #3"}, "type": "Feature"}, {"geometry": {"coordinates": [-121.982668, 37.544047], "type": "Point"}, "properties": {"address": "39441 FREMONT BLVD FREMONT, CA 94536", "grade": "g", "inspection_date": "2018-12-20", "name": "FOOD MAXX #409"}, "type": "Feature"}, {"geometry": {"coordinates": [-122.199526, 37.72717], "type": "Point"}, "properties": {"address": "1065 98TH AVE OAKLAND, CA 94603", "grade": " ", "inspection_date": "2014-04-07", "name": "FOUR BELLS MARKET & LIQUORS"}, "type": "Feature"}, {"geometry": {"coordinates": [-121.930253, 37.708836], "type": "Point"}, "properties": {"address": "7281 AMADOR PLAZA RD DUBLIN, CA 94568", "grade": "y", "inspection_date": "2015-06-22", "name": "FREE BIRDS WORLD BURRITO"}, "type": "Feature"}, {"geometry": {"coordinates": [-121.965313, 37.513412], "type": "Point"}, "properties": {"address": "43250 GRIMMER BLVD FREMONT, CA 94538", "grade": "y", "inspection_date": "2018-08-03", "name": "FREMONT GAS & FOOD"}, "type": "Feature"}, {"geometry": {"coordinates": [-121.946352, 37.489059], "type": "Point"}, "properties": {"address": "46100 LANDING PKWY FREMONT, CA 94538", "grade": "g", "inspection_date": "2015-10-13", "name": "FREMONT MARRIOTT"}, "type": "Feature"}, {"geometry": {"coordinates": [-122.275907, 37.773308], "type": "Point"}, "properties": {"address": "2321 SANTA CLARA AVE ALAMEDA, CA 94501", "grade": " ", "inspection_date": "2012-05-02", "name": "FRUITTI YOGI"}, "type": "Feature"}, {"geometry": {"coordinates": [-122.284842, 37.816796], "type": "Point"}, "properties": {"address": "2311 MAGNOLIA ST OAKLAND, CA 94607", "grade": "g", "inspection_date": "2013-03-06", "name": "FUSE BOX"}, "type": "Feature"}, {"geometry": {"coordinates": [-121.935152, 37.707281], "type": "Point"}, "properties": {"address": "7821 AMADOR VALLEY BLVD DUBLIN, CA 94568", "grade": "g", "inspection_date": "2012-10-08", "name": "GALLAGHER'S DUBLIN PUB"}, "type": "Feature"}, {"geometry": {"coordinates": [-121.987667, 37.549445], "type": "Point"}, "properties": {"address": "3846 MOWRY AVE FREMONT, CA 94538", "grade": "g", "inspection_date": "2014-08-20", "name": "GATERS"}, "type": "Feature"}, {"geometry": {"coordinates": [-122.158464, 37.743633], "type": "Point"}, "properties": {"address": "7000 BANCROFT AVE OAKLAND, CA 94605", "grade": "g", "inspection_date": "2018-11-28", "name": "GAZZALIS SUPERMARKET"}, "type": "Feature"}, {"geometry": {"coordinates": [-122.260921, 37.812743], "type": "Point"}, "properties": {"address": "230 BAY PL OAKLAND, CA 94612", "grade": " ", "inspection_date": "2019-07-29", "name": "GENJI SUSHI"}, "type": "Feature"}, {"geometry": {"coordinates": [-122.198692, 37.791406], "type": "Point"}, "properties": {"address": "3811 MACARTHUR BLVD OAKLAND, CA 94619", "grade": "g", "inspection_date": "2015-01-05", "name": "GERARDO'S"}, "type": "Feature"}, {"geometry": {"coordinates": [-122.079684, 37.676798], "type": "Point"}, "properties": {"address": "1235 A ST HAYWARD, CA 94541", "grade": "g", "inspection_date": "2019-01-23", "name": "GHAZNI"}, "type": "Feature"}, {"geometry": {"coordinates": [-122.078407, 37.666111], "type": "Point"}, "properties": {"address": "24134 MISSION BLVD HAYWARD, CA 94541", "grade": "g", "inspection_date": "2014-02-27", "name": "GIANT BURGERS"}, "type": "Feature"}, {"geometry": {"coordinates": [-121.952479, 37.542371], "type": "Point"}, "properties": {"address": "39150 PASEO PADRE PKWY FREMONT, CA 94538", "grade": "y", "inspection_date": "2014-09-09", "name": "GO CHAATZZ"}, "type": "Feature"}, {"geometry": {"coordinates": [-122.270438, 37.803304], "type": "Point"}, "properties": {"address": "1301 FRANKLIN ST OAKLAND, CA 94612", "grade": "y", "inspection_date": "2017-05-25", "name": "GOLDEN LOTUS"}, "type": "Feature"}, {"geometry": {"coordinates": [-122.086743, 37.68096], "type": "Point"}, "properties": {"address": "21933 FOOTHILL BLVD HAYWARD, CA 94541", "grade": "g", "inspection_date": "2017-12-21", "name": "GOLDEN MOUNTAIN RESTAURANT"}, "type": "Feature"}, {"geometry": {"coordinates": [-121.922852, 37.495863], "type": "Point"}, "properties": {"address": "46531 MISSION BLVD FREMONT, CA 94539", "grade": "g", "inspection_date": "2018-04-13", "name": "GOLDEN PINEAPPLE"}, "type": "Feature"}, {"geometry": {"coordinates": [-121.922852, 37.495863], "type": "Point"}, "properties": {"address": "46531 MISSION BLVD FREMONT, CA 94539", "grade": "g", "inspection_date": "2019-05-03", "name": "GOLDEN PINEAPPLE"}, "type": "Feature"}, {"geometry": {"coordinates": [-121.948202, 37.549965], "type": "Point"}, "properties": {"address": "555 LEMOS LN FREMONT, CA 94539", "grade": "g", "inspection_date": "2016-10-26", "name": "GOMES SCHOOL CAFETERIA"}, "type": "Feature"}, {"geometry": {"coordinates": [-122.289692, 37.890843], "type": "Point"}, "properties": {"address": "1423 SOLANO AVE ALBANY, CA 94706", "grade": "y", "inspection_date": "2017-03-28", "name": "GORDO TAQUERIA #3"}, "type": "Feature"}, {"geometry": {"coordinates": [-122.254467, 37.80895], "type": "Point"}, "properties": {"address": "384 GRAND AVE OAKLAND, CA 94610", "grade": "r", "inspection_date": "2017-05-22", "name": "GRAND AVENUE THAI CUISINE"}, "type": "Feature"}, {"geometry": {"coordinates": [-122.25518, 37.772527], "type": "Point"}, "properties": {"address": "1702 LINCOLN AVE ALAMEDA, CA 94501", "grade": "g", "inspection_date": "2013-09-26", "name": "GRAND MARKET"}, "type": "Feature"}, {"geometry": {"coordinates": [-122.278748, 37.842768], "type": "Point"}, "properties": {"address": "942 STANFORD AVE OAKLAND, CA 94608", "grade": "g", "inspection_date": "2016-08-22", "name": "GREASEBOX"}, "type": "Feature"}, {"geometry": {"coordinates": [-122.271607, 37.798741], "type": "Point"}, "properties": {"address": "720 WEBSTER ST OAKLAND, CA 94607", "grade": "g", "inspection_date": "2017-05-04", "name": "GREAT WALL COMPANY"}, "type": "Feature"}, {"geometry": {"coordinates": [-122.194849, 37.764389], "type": "Point"}, "properties": {"address": "6328 E 17TH ST OAKLAND, CA 94621", "grade": "g", "inspection_date": "2017-12-15", "name": "GREEN LEAF SCHOOL"}, "type": "Feature"}, {"geometry": {"coordinates": [-122.234709, 37.787698], "type": "Point"}, "properties": {"address": "1880 22ND AVE OAKLAND, CA 94606", "grade": "g", "inspection_date": "2017-06-27", "name": "SUNRISE MARKET"}, "type": "Feature"}, {"geometry": {"coordinates": [-122.137428, 37.711433], "type": "Point"}, "properties": {"address": "14327 E 14TH ST SAN LEANDRO, CA 94578", "grade": "y", "inspection_date": "2014-08-19", "name": "GUADALAJARA TAQUERIA"}, "type": "Feature"}, {"geometry": {"coordinates": [-122.147643, 37.69151], "type": "Point"}, "properties": {"address": "991 MANOR BLVD SAN LEANDRO, CA 94579", "grade": "g", "inspection_date": "2013-02-01", "name": "GUIDO'S"}, "type": "Feature"}, {"geometry": {"coordinates": [-122.014527, 37.556633], "type": "Point"}, "properties": {"address": "4342 THORNTON AVE FREMONT, CA 94536", "grade": " ", "inspection_date": "2016-09-13", "name": "GYRO TOWN"}, "type": "Feature"}, {"geometry": {"coordinates": [-122.05084, 37.595408], "type": "Point"}, "properties": {"address": "34595 ALVARADO NILES RD UNION CITY, CA 94587", "grade": "g", "inspection_date": "2015-11-19", "name": "HAAFIZ FOOD MART"}, "type": "Feature"}, {"geometry": {"coordinates": [-121.937541, 37.705041], "type": "Point"}, "properties": {"address": "7298 SAN RAMON RD DUBLIN, CA 94568", "grade": "g", "inspection_date": "2012-09-27", "name": "HANA JAPAN STEAK HOUSE"}, "type": "Feature"}, {"geometry": {"coordinates": [-121.782744, 37.678796], "type": "Point"}, "properties": {"address": "979 E STANLEY BLVD LIVERMORE, CA 94550", "grade": "g", "inspection_date": "2015-06-24", "name": "HANABISHI"}, "type": "Feature"}, {"geometry": {"coordinates": [-122.149984, 37.741628], "type": "Point"}, "properties": {"address": "10807 MACARTHUR BLVD OAKLAND, CA 94605", "grade": "g", "inspection_date": "2018-06-22", "name": "HAPPY DONUTS"}, "type": "Feature"}, {"geometry": {"coordinates": [-122.26512, 37.812104], "type": "Point"}, "properties": {"address": "2300 WEBSTER ST OAKLAND, CA 94612", "grade": "y", "inspection_date": "2015-10-12", "name": "HAWKER FARE"}, "type": "Feature"}, {"geometry": {"coordinates": [-122.07677, 37.663253], "type": "Point"}, "properties": {"address": "849 SYCAMORE AVE HAYWARD, CA 94544", "grade": "g", "inspection_date": "2013-02-13", "name": "HAYWARD LIQUOR & GROCERY"}, "type": "Feature"}, {"geometry": {"coordinates": [-121.768444, 37.681833], "type": "Point"}, "properties": {"address": "2293 FIRST ST LIVERMORE, CA 94550", "grade": "g", "inspection_date": "2015-06-12", "name": "HENRY BEAM'S BLUE BAR"}, "type": "Feature"}, {"geometry": {"coordinates": [-121.785821, 37.67841], "type": "Point"}, "properties": {"address": "900 E STANLEY BLVD LIVERMORE, CA 94550", "grade": "g", "inspection_date": "2012-10-03", "name": "HERITAGE ESTATES"}, "type": "Feature"}, {"geometry": {"coordinates": [-122.269481, 37.804996], "type": "Point"}, "properties": {"address": "400 15TH ST OAKLAND, CA 94612", "grade": "r", "inspection_date": "2018-05-03", "name": "HI-LIFE PIZZA"}, "type": "Feature"}, {"geometry": {"coordinates": [-122.137451, 37.686609], "type": "Point"}, "properties": {"address": "510 LEWELLING BLVD SAN LEANDRO, CA 94579", "grade": "g", "inspection_date": "2016-05-27", "name": "HILTON GARDEN INN"}, "type": "Feature"}, {"geometry": {"coordinates": [-122.283517, 37.801417], "type": "Point"}, "properties": {"address": "2700 5TH ST ALAMEDA, CA 94502", "grade": "g", "inspection_date": "2016-07-27", "name": "TARGET STORE #2829"}, "type": "Feature"}, {"geometry": {"coordinates": [-122.246273, 37.81071], "type": "Point"}, "properties": {"address": "677 RAND AVE OAKLAND, CA 94610", "grade": "y", "inspection_date": "2014-04-10", "name": "HOLY LAND"}, "type": "Feature"}, {"geometry": {"coordinates": [-122.267898, 37.817062], "type": "Point"}, "properties": {"address": "2773 TELEGRAPH AVE OAKLAND, CA 94612", "grade": "y", "inspection_date": "2018-06-28", "name": "HOME ON THE RANGE"}, "type": "Feature"}, {"geometry": {"coordinates": [-122.235165, 37.777286], "type": "Point"}, "properties": {"address": "2701 E 9TH ST OAKLAND, CA 94601", "grade": "g", "inspection_date": "2016-03-11", "name": "TAQUERIA LA BARCA"}, "type": "Feature"}, {"geometry": {"coordinates": [-122.24264, 37.764539], "type": "Point"}, "properties": {"address": "1425 PARK ST ALAMEDA, CA 94501", "grade": "g", "inspection_date": "2014-04-03", "name": "HONG KONG CITY RESTAURANT"}, "type": "Feature"}, {"geometry": {"coordinates": [-122.282319, 37.80453], "type": "Point"}, "properties": {"address": "900 MARKET ST #C OAKLAND, CA 94607", "grade": "g", "inspection_date": "2014-08-04", "name": "HONG KONG FAST FOOD"}, "type": "Feature"}, {"geometry": {"coordinates": [-122.282319, 37.80453], "type": "Point"}, "properties": {"address": "900 MARKET ST #C OAKLAND, CA 94607", "grade": " ", "inspection_date": "2016-10-11", "name": "HONG KONG FAST FOOD"}, "type": "Feature"}, {"geometry": {"coordinates": [-122.254389, 37.808846], "type": "Point"}, "properties": {"address": "391 GRAND AVE OAKLAND, CA 94610", "grade": "y", "inspection_date": "2014-12-10", "name": "HOUSE OF CURRIES"}, "type": "Feature"}, {"geometry": {"coordinates": [-121.988575, 37.548327], "type": "Point"}, "properties": {"address": "4004 MOWRY AVE FREMONT, CA 94538", "grade": "g", "inspection_date": "2018-10-23", "name": "HUB VALERO"}, "type": "Feature"}, {"geometry": {"coordinates": [-122.18243, 37.798344], "type": "Point"}, "properties": {"address": "4100 REDWOOD RD 11 OAKLAND, CA 94619", "grade": "g", "inspection_date": "2018-04-19", "name": "HUNAN YUAN RESTAURANT"}, "type": "Feature"}, {"geometry": {"coordinates": [-122.293398, 37.839255], "type": "Point"}, "properties": {"address": "5800 SHELLMOUND ST EMERYVILLE, CA 94608", "grade": " ", "inspection_date": "2017-07-13", "name": "HYATT HOUSE"}, "type": "Feature"}, {"geometry": {"coordinates": [-122.266617, 37.811053], "type": "Point"}, "properties": {"address": "2204 BROADWAY OAKLAND, CA 94612", "grade": " ", "inspection_date": "2016-10-10", "name": "IKE'S LAIR"}, "type": "Feature"}, {"geometry": {"coordinates": [-121.979183, 37.550218], "type": "Point"}, "properties": {"address": "3395 WALNUT AVE FREMONT, CA 94538", "grade": "g", "inspection_date": "2012-10-04", "name": "INDIA CHATKHARA RESTAURANT"}, "type": "Feature"}, {"geometry": {"coordinates": [-121.981708, 37.546632], "type": "Point"}, "properties": {"address": "3890 WALNUT AVE FREMONT, CA 94538", "grade": "g", "inspection_date": "2018-11-19", "name": "INDIAN MARKET"}, "type": "Feature"}, {"geometry": {"coordinates": [-121.971082, 37.522519], "type": "Point"}, "properties": {"address": "41800 BLACOW RD FREMONT, CA 94538", "grade": "g", "inspection_date": "2019-05-02", "name": "IRVINGTON HS"}, "type": "Feature"}, {"geometry": {"coordinates": [-122.023704, 37.540784], "type": "Point"}, "properties": {"address": "39017 CEDAR BLVD NEWARK, CA 94560", "grade": " ", "inspection_date": "2015-03-30", "name": "JACK IN THE BOX #3481"}, "type": "Feature"}, {"geometry": {"coordinates": [-122.098107, 37.633072], "type": "Point"}, "properties": {"address": "25198 HESPERIAN BLVD HAYWARD, CA 94544", "grade": " ", "inspection_date": "2012-05-30", "name": "JACK IN THE BOX #424"}, "type": "Feature"}, {"geometry": {"coordinates": [-122.263839, 37.832737], "type": "Point"}, "properties": {"address": "4425 TELEGRAPH AVE OAKLAND, CA 94609", "grade": "g", "inspection_date": "2014-12-01", "name": "JACK IN THE BOX #433"}, "type": "Feature"}, {"geometry": {"coordinates": [-122.066648, 37.650617], "type": "Point"}, "properties": {"address": "22501 MISSION BLVD HAYWARD, CA 94545", "grade": "g", "inspection_date": "2019-06-24", "name": "JAMBA JUICE #495"}, "type": "Feature"}, {"geometry": {"coordinates": [-122.11957, 37.66722], "type": "Point"}, "properties": {"address": "19651 HESPERIAN BLVD HAYWARD, CA 94541", "grade": "g", "inspection_date": "2018-05-17", "name": "JAMBA JUICE #800"}, "type": "Feature"}, {"geometry": {"coordinates": [-122.261731, 37.770026], "type": "Point"}, "properties": {"address": "1414 ENCINAL AVE ALAMEDA, CA 94501", "grade": "g", "inspection_date": "2019-05-17", "name": "JAY'S COFFEE & TEA"}, "type": "Feature"}, {"geometry": {"coordinates": [-121.947585, 37.511081], "type": "Point"}, "properties": {"address": "43900 ICE HOUSE TER FREMONT, CA 94538", "grade": "g", "inspection_date": "2017-08-18", "name": "JBT (JIM'S BREAK TIME)"}, "type": "Feature"}, {"geometry": {"coordinates": [-121.924807, 37.693044], "type": "Point"}, "properties": {"address": "5532 SPRINGDALE AVE PLEASANTON, CA 94588", "grade": "g", "inspection_date": "2014-06-16", "name": "JC PENNEY #0389-H"}, "type": "Feature"}, {"geometry": {"coordinates": [-122.046961, 37.553091], "type": "Point"}, "properties": {"address": "5810 JARVIS AVE NEWARK, CA 94560", "grade": "g", "inspection_date": "2019-06-18", "name": "JOHNNY'S PUB"}, "type": "Feature"}, {"geometry": {"coordinates": [-121.897482, 37.69134], "type": "Point"}, "properties": {"address": "2705 STONERIDGE DR #M PLEASANTON, CA 94588", "grade": "g", "inspection_date": "2019-03-11", "name": "K W RESTAURANT"}, "type": "Feature"}, {"geometry": {"coordinates": [-122.239344, 37.763851], "type": "Point"}, "properties": {"address": "2549 SANTA CLARA AVE ALAMEDA, CA 94501", "grade": "y", "inspection_date": "2016-12-01", "name": "KAMAKURA RESTAURANT"}, "type": "Feature"}, {"geometry": {"coordinates": [-121.876335, 37.700702], "type": "Point"}, "properties": {"address": "4275 ROSEWOOD DR 27 PLEASANTON, CA 94588", "grade": " ", "inspection_date": "2012-05-03", "name": "KASPERS HOT DOGS"}, "type": "Feature"}, {"geometry": {"coordinates": [-122.074035, 37.702693], "type": "Point"}, "properties": {"address": "20861 REDWOOD RD CASTRO VALLEY, CA 94546", "grade": "g", "inspection_date": "2013-04-18", "name": "KATSU RESTAURANT"}, "type": "Feature"}, {"geometry": {"coordinates": [-121.768453, 37.680164], "type": "Point"}, "properties": {"address": "2180 3RD ST LIVERMORE, CA 94550", "grade": "y", "inspection_date": "2017-03-23", "name": "KAWA SUSHI"}, "type": "Feature"}, {"geometry": {"coordinates": [-122.110433, 37.666277], "type": "Point"}, "properties": {"address": "525 W A ST HAYWARD, CA 94541", "grade": "r", "inspection_date": "2018-01-04", "name": "KB VALERO (MARKET)"}, "type": "Feature"}, {"geometry": {"coordinates": [-122.223102, 37.783205], "type": "Point"}, "properties": {"address": "1939 FRUITVALE AVE OAKLAND, CA 94601", "grade": "g", "inspection_date": "2014-12-10", "name": "KELLY'S CAFE"}, "type": "Feature"}, {"geometry": {"coordinates": [-122.042348, 37.552564], "type": "Point"}, "properties": {"address": "35430 BLACKBURN DR NEWARK, CA 94560", "grade": "g", "inspection_date": "2013-10-28", "name": "KENNEDY ELEMENTARY SCHOOL"}, "type": "Feature"}, {"geometry": {"coordinates": [-122.243668, 37.762045], "type": "Point"}, "properties": {"address": "2424 ENCINAL AVE ALAMEDA, CA 94501", "grade": "g", "inspection_date": "2018-12-18", "name": "KENTUCKY FRIED CHICKEN #140 KUMAR"}, "type": "Feature"}, {"geometry": {"coordinates": [-121.92482, 37.489532], "type": "Point"}, "properties": {"address": "190 FRANCISCAN LN FREMONT, CA 94539", "grade": "g", "inspection_date": "2017-11-15", "name": "KENTUCKY FRIED CHICKEN #185"}, "type": "Feature"}, {"geometry": {"coordinates": [-122.010088, 37.559663], "type": "Point"}, "properties": {"address": "37123 FREMONT BLVD FREMONT, CA 94536", "grade": "y", "inspection_date": "2016-10-12", "name": "KFC & AW RESTAURANT"}, "type": "Feature"}, {"geometry": {"coordinates": [-121.956757, 37.521749], "type": "Point"}, "properties": {"address": "42318 FREMONT BLVD FREMONT, CA 94538", "grade": "g", "inspection_date": "2017-08-22", "name": "THE GREEN CHAMPA GARDEN"}, "type": "Feature"}, {"geometry": {"coordinates": [-122.272401, 37.799555], "type": "Point"}, "properties": {"address": "395 8TH ST OAKLAND, CA 94607", "grade": "g", "inspection_date": "2015-12-29", "name": "KING OF GROCERY"}, "type": "Feature"}, {"geometry": {"coordinates": [-122.246818, 37.813293], "type": "Point"}, "properties": {"address": "3332 GRAND AVE OAKLAND, CA 94610", "grade": "g", "inspection_date": "2014-09-15", "name": "KINGMAN'S LUCKY LOUNGE"}, "type": "Feature"}, {"geometry": {"coordinates": [-122.14155, 37.700142], "type": "Point"}, "properties": {"address": "250 FLORESTA BLVD SAN LEANDRO, CA 94578", "grade": "g", "inspection_date": "2012-08-23", "name": "K-MART"}, "type": "Feature"}, {"geometry": {"coordinates": [-121.995909, 37.539533], "type": "Point"}, "properties": {"address": "5379 MOWRY AVE FREMONT, CA 94538", "grade": "g", "inspection_date": "2014-06-03", "name": "KOHE-NOOR"}, "type": "Feature"}, {"geometry": {"coordinates": [-121.950467, 37.490466], "type": "Point"}, "properties": {"address": "4185 CUSHING PKWY FREMONT, CA 94538", "grade": "r", "inspection_date": "2012-09-19", "name": "KOREAN CUISINE"}, "type": "Feature"}, {"geometry": {"coordinates": [-121.991773, 37.550291], "type": "Point"}, "properties": {"address": "35041 FREMONT BLVD FREMONT, CA 94536", "grade": "g", "inspection_date": "2017-09-29", "name": "K-POP CAFE"}, "type": "Feature"}, {"geometry": {"coordinates": [-122.122764, 37.686798], "type": "Point"}, "properties": {"address": "15 E LEWELLING BLVD SAN LORENZO, CA 94580", "grade": "g", "inspection_date": "2018-03-09", "name": "KUSINERA"}, "type": "Feature"}, {"geometry": {"coordinates": [-122.050809, 37.54867], "type": "Point"}, "properties": {"address": "6185 JARVIS AVE NEWARK, CA 94560", "grade": "g", "inspection_date": "2014-10-08", "name": "L & L HAWAIIAN BARBECUE"}, "type": "Feature"}, {"geometry": {"coordinates": [-122.267003, 37.811011], "type": "Point"}, "properties": {"address": "2200 BROADWAY OAKLAND, CA 94612", "grade": "r", "inspection_date": "2017-08-16", "name": "LA BONITA TAQUERIA"}, "type": "Feature"}, {"geometry": {"coordinates": [-122.280564, 37.815828], "type": "Point"}, "properties": {"address": "2321 FILBERT ST OAKLAND, CA 94607", "grade": " ", "inspection_date": "2016-11-18", "name": "LA BONNE CUISINE"}, "type": "Feature"}, {"geometry": {"coordinates": [-121.958355, 37.530063], "type": "Point"}, "properties": {"address": "41240 FREMONT BLVD FREMONT, CA 94538", "grade": "g", "inspection_date": "2012-09-06", "name": "LA CASITA"}, "type": "Feature"}, {"geometry": {"coordinates": [-122.213926, 37.771904], "type": "Point"}, "properties": {"address": "4825 INTERNATIONAL BLVD OAKLAND, CA 94601", "grade": "g", "inspection_date": "2018-08-13", "name": "LA COLMENA PRODUCE MARKET"}, "type": "Feature"}, {"geometry": {"coordinates": [-122.216612, 37.778858], "type": "Point"}, "properties": {"address": "3809 FOOTHILL BLVD OAKLAND, CA 94601", "grade": " ", "inspection_date": "2019-03-07", "name": "LA FINCA #2"}, "type": "Feature"}, {"geometry": {"coordinates": [-122.153859, 37.715793], "type": "Point"}, "properties": {"address": "1269 MARINA BLVD SAN LEANDRO, CA 94577", "grade": "g", "inspection_date": "2014-05-08", "name": "SUBWAY"}, "type": "Feature"}, {"geometry": {"coordinates": [-122.08217, 37.675086], "type": "Point"}, "properties": {"address": "236 A ST HAYWARD, CA 94541", "grade": "g", "inspection_date": "2014-12-22", "name": "LA MEXICANA"}, "type": "Feature"}, {"geometry": {"coordinates": [-122.240892, 37.737597], "type": "Point"}, "properties": {"address": "891 ISLAND DR #B ALAMEDA, CA 94502", "grade": "g", "inspection_date": "2012-11-01", "name": "LA PENCA AZUL"}, "type": "Feature"}, {"geometry": {"coordinates": [-121.907976, 37.706212], "type": "Point"}, "properties": {"address": "6275 DUBLIN BLVD DUBLIN, CA 94568", "grade": "r", "inspection_date": "2013-02-28", "name": "LA QUINTA INN & SUITES"}, "type": "Feature"}, {"geometry": {"coordinates": [-122.062148, 37.645061], "type": "Point"}, "properties": {"address": "26953 MISSION BLVD F HAYWARD, CA 94544", "grade": "y", "inspection_date": "2012-07-24", "name": "LA VICTORIA"}, "type": "Feature"}, {"geometry": {"coordinates": [-122.219996, 37.790272], "type": "Point"}, "properties": {"address": "2682 FRUITVALE AVE OAKLAND, CA 94601", "grade": "y", "inspection_date": "2012-11-02", "name": "LAS PALMAS RESTAURANT"}, "type": "Feature"}, {"geometry": {"coordinates": [-122.197818, 37.790723], "type": "Point"}, "properties": {"address": "3932 MACARTHUR BLVD OAKLAND, CA 94619", "grade": "g", "inspection_date": "2015-01-05", "name": "LAUREL LOUNGE"}, "type": "Feature"}, {"geometry": {"coordinates": [-121.998609, 37.536094], "type": "Point"}, "properties": {"address": "5014 MOWRY AVE FREMONT, CA 94538", "grade": "g", "inspection_date": "2018-11-28", "name": "LE MOOSE CREPE CAFE"}, "type": "Feature"}, {"geometry": {"coordinates": [-122.154403, 37.724113], "type": "Point"}, "properties": {"address": "1443 E 14TH ST A SAN LEANDRO, CA 94577", "grade": "y", "inspection_date": "2018-11-02", "name": "LEISURE CAFE"}, "type": "Feature"}, {"geometry": {"coordinates": [-122.268058, 37.806116], "type": "Point"}, "properties": {"address": "380 17TH ST OAKLAND, CA 94612", "grade": "g", "inspection_date": "2014-12-15", "name": "LIBA FALAFEL"}, "type": "Feature"}, {"geometry": {"coordinates": [-122.049745, 37.549654], "type": "Point"}, "properties": {"address": "6104 JARVIS AVE NEWARK, CA 94560", "grade": " ", "inspection_date": "2012-05-03", "name": "LIDO FAIRE CHEVRON"}, "type": "Feature"}, {"geometry": {"coordinates": [-122.268146, 37.800458], "type": "Point"}, "properties": {"address": "225 11TH ST OAKLAND, CA 94607", "grade": "g", "inspection_date": "2015-05-29", "name": "LINCOLN ELEMENTARY SCHOOL"}, "type": "Feature"}, {"geometry": {"coordinates": [-122.241582, 37.765491], "type": "Point"}, "properties": {"address": "1506 PARK ST ALAMEDA, CA 94501", "grade": "y", "inspection_date": "2015-02-24", "name": "LINGUINI'S PASTA & VINO CAFE"}, "type": "Feature"}, {"geometry": {"coordinates": [-122.276938, 37.773958], "type": "Point"}, "properties": {"address": "1521 WEBSTER ST A ALAMEDA, CA 94501", "grade": "g", "inspection_date": "2014-11-18", "name": "LITTLE CAESAR'S PIZZA"}, "type": "Feature"}, {"geometry": {"coordinates": [-122.276938, 37.773958], "type": "Point"}, "properties": {"address": "1521 WEBSTER ST A ALAMEDA, CA 94501", "grade": "g", "inspection_date": "2018-06-29", "name": "LITTLE CAESAR'S PIZZA"}, "type": "Feature"}, {"geometry": {"coordinates": [-121.873848, 37.707816], "type": "Point"}, "properties": {"address": "4480 TASSAJARA RD #B DUBLIN, CA 94568", "grade": "g", "inspection_date": "2013-01-23", "name": "LITTLE MADFISH"}, "type": "Feature"}, {"geometry": {"coordinates": [-121.972503, 37.506234], "type": "Point"}, "properties": {"address": "43337 CHRISTY ST FREMONT, CA 94538", "grade": "g", "inspection_date": "2015-03-02", "name": "LITTLE MADFISH"}, "type": "Feature"}, {"geometry": {"coordinates": [-122.020684, 37.589274], "type": "Point"}, "properties": {"address": "1749 DECOTO RD UNION CITY, CA 94587", "grade": "y", "inspection_date": "2014-03-10", "name": "LITTLE SHEN YANG"}, "type": "Feature"}, {"geometry": {"coordinates": [-121.768402, 37.681581], "type": "Point"}, "properties": {"address": "2223 FIRST ST LIVERMORE, CA 94550", "grade": "g", "inspection_date": "2013-10-15", "name": "LIVERMORE SALOON"}, "type": "Feature"}, {"geometry": {"coordinates": [-121.770633, 37.690087], "type": "Point"}, "properties": {"address": "2451 PORTOLA AVE LIVERMORE, CA 94551", "grade": "g", "inspection_date": "2017-05-03", "name": "LIVERMORE VALLEY CHARTER PREP HS"}, "type": "Feature"}, {"geometry": {"coordinates": [-121.769645, 37.681492], "type": "Point"}, "properties": {"address": "2130 FIRST ST LIVERMORE, CA 94550", "grade": "g", "inspection_date": "2013-06-05", "name": "LOS CAPORALES TAQUERIA"}, "type": "Feature"}, {"geometry": {"coordinates": [-122.223548, 37.783864], "type": "Point"}, "properties": {"address": "3010 FOOTHILL BLVD OAKLAND, CA 94601", "grade": "y", "inspection_date": "2018-01-26", "name": "LOS OLIVOS"}, "type": "Feature"}, {"geometry": {"coordinates": [-122.097651, 37.680418], "type": "Point"}, "properties": {"address": "441 BLOSSOM WAY HAYWARD, CA 94541", "grade": "y", "inspection_date": "2014-09-26", "name": "LOS VECO'S SUPER TAQUERIA"}, "type": "Feature"}, {"geometry": {"coordinates": [-121.96158, 37.542483], "type": "Point"}, "properties": {"address": "39158 PASEO PADRE PKWY FREMONT, CA 94538", "grade": "y", "inspection_date": "2014-05-19", "name": "LOTUS INDIAN EXPRESS"}, "type": "Feature"}, {"geometry": {"coordinates": [-121.877783, 37.688417], "type": "Point"}, "properties": {"address": "1991 SANTA RITA RD #A PLEASANTON, CA 94566", "grade": "g", "inspection_date": "2014-09-30", "name": "LOTUS PERSIAN CUISINE"}, "type": "Feature"}, {"geometry": {"coordinates": [-122.262499, 37.836499], "type": "Point"}, "properties": {"address": "2817 TELEGRAPH AVE OAKLAND, CA 94609", "grade": " ", "inspection_date": "2018-06-27", "name": "LOUISIANA FISH AND CHIPS"}, "type": "Feature"}, {"geometry": {"coordinates": [-121.780295, 37.662247], "type": "Point"}, "properties": {"address": "1951 HOLMES ST LIVERMORE, CA 94550", "grade": "g", "inspection_date": "2019-05-13", "name": "LUCKY #722"}, "type": "Feature"}, {"geometry": {"coordinates": [-121.998511, 37.536223], "type": "Point"}, "properties": {"address": "5000 MOWRY AVE FREMONT, CA 94538", "grade": "g", "inspection_date": "2017-11-08", "name": "LUCKY"}, "type": "Feature"}, {"geometry": {"coordinates": [-121.936111, 37.702472], "type": "Point"}, "properties": {"address": "8937 SAN RAMON RD DUBLIN, CA 94568", "grade": "g", "inspection_date": "2012-10-25", "name": "LUMPIA HOUSE"}, "type": "Feature"}, {"geometry": {"coordinates": [-122.139469, 37.731366], "type": "Point"}, "properties": {"address": "1099 MACARTHUR BLVD SAN LEANDRO, CA 94577", "grade": "y", "inspection_date": "2014-12-04", "name": "MAIN STREET BAGELS, INC"}, "type": "Feature"}, {"geometry": {"coordinates": [-121.876464, 37.659844], "type": "Point"}, "properties": {"address": "411 MAIN ST PLEASANTON, CA 94566", "grade": "g", "inspection_date": "2013-11-20", "name": "MAIN SUSHI"}, "type": "Feature"}, {"geometry": {"coordinates": [-121.971082, 37.522519], "type": "Point"}, "properties": {"address": "41200 BLACOW RD #I FREMONT, CA 94538", "grade": " ", "inspection_date": "2012-04-30", "name": "MAPLE LEAF DONUTS"}, "type": "Feature"}, {"geometry": {"coordinates": [-122.251499, 37.838087], "type": "Point"}, "properties": {"address": "5301 COLLEGE AVE OAKLAND, CA 94618", "grade": "r", "inspection_date": "2017-10-18", "name": "MARCIA"}, "type": "Feature"}, {"geometry": {"coordinates": [-121.929821, 37.49348], "type": "Point"}, "properties": {"address": "46196 WARM SPRINGS BLVD FREMONT, CA 94539", "grade": "g", "inspection_date": "2013-02-20", "name": "MARINA FOOD #9"}, "type": "Feature"}, {"geometry": {"coordinates": [-121.929821, 37.49348], "type": "Point"}, "properties": {"address": "46196 WARM SPRINGS BLVD FREMONT, CA 94539", "grade": "g", "inspection_date": "2017-08-03", "name": "MARINA FOOD #9"}, "type": "Feature"}, {"geometry": {"coordinates": [-121.929821, 37.49348], "type": "Point"}, "properties": {"address": "46196 WARM SPRINGS BLVD FREMONT, CA 94539", "grade": "g", "inspection_date": "2019-08-13", "name": "MARINA FOOD #9"}, "type": "Feature"}, {"geometry": {"coordinates": [-122.0208, 37.588938], "type": "Point"}, "properties": {"address": "1791 DECOTO RD UNION CITY, CA 94587", "grade": "g", "inspection_date": "2016-11-21", "name": "MARINA GROCERY"}, "type": "Feature"}, {"geometry": {"coordinates": [-121.769141, 37.681334], "type": "Point"}, "properties": {"address": "2175 FIRST ST LIVERMORE, CA 94550", "grade": "y", "inspection_date": "2016-12-07", "name": "MARIO'S LINKS N HOPS"}, "type": "Feature"}, {"geometry": {"coordinates": [-122.262499, 37.836499], "type": "Point"}, "properties": {"address": "2956 TELEGRAPH AVE OAKLAND, CA 94609", "grade": "y", "inspection_date": "2015-12-21", "name": "MAWRA HALAL MARKET"}, "type": "Feature"}, {"geometry": {"coordinates": [-122.063136, 37.689447], "type": "Point"}, "properties": {"address": "2905 GROVE WAY CASTRO VALLEY, CA 94546", "grade": "g", "inspection_date": "2012-12-19", "name": "MCDONALD'S #13562"}, "type": "Feature"}, {"geometry": {"coordinates": [-122.265443, 37.801515], "type": "Point"}, "properties": {"address": "1330 JACKSON ST OAKLAND, CA 94612", "grade": "g", "inspection_date": "2013-03-21", "name": "MCDONALD'S #2112"}, "type": "Feature"}, {"geometry": {"coordinates": [-122.195982, 37.74654], "type": "Point"}, "properties": {"address": "640 HEGENBERGER RD OAKLAND, CA 94621", "grade": "r", "inspection_date": "2016-01-14", "name": "MCDONALD'S #2169"}, "type": "Feature"}, {"geometry": {"coordinates": [-122.170716, 37.744935], "type": "Point"}, "properties": {"address": "9725 INTERNATIONAL BLVD OAKLAND, CA 94603", "grade": "g", "inspection_date": "2015-10-07", "name": "MCDONALD'S #7100"}, "type": "Feature"}, {"geometry": {"coordinates": [-122.19917, 37.737781], "type": "Point"}, "properties": {"address": "8400 EDGEWATER DR OAKLAND, CA 94621", "grade": "g", "inspection_date": "2014-09-03", "name": "MCDONALD'S RESTAURANT"}, "type": "Feature"}, {"geometry": {"coordinates": [-121.922852, 37.495863], "type": "Point"}, "properties": {"address": "42800 MISSION BLVD FREMONT, CA 94539", "grade": "g", "inspection_date": "2019-01-16", "name": "MCDONALD'S"}, "type": "Feature"}, {"geometry": {"coordinates": [-122.093668, 37.631835], "type": "Point"}, "properties": {"address": "2299 W TENNYSON RD HAYWARD, CA 94545", "grade": "g", "inspection_date": "2019-05-08", "name": "MCDONALD'S"}, "type": "Feature"}, {"geometry": {"coordinates": [-122.251409, 37.838539], "type": "Point"}, "properties": {"address": "5352 COLLEGE AVE OAKLAND, CA 94618", "grade": "g", "inspection_date": "2015-01-16", "name": "MCNALLY'S IRISH PUB"}, "type": "Feature"}, {"geometry": {"coordinates": [-122.251409, 37.838539], "type": "Point"}, "properties": {"address": "5352 COLLEGE AVE OAKLAND, CA 94618", "grade": "g", "inspection_date": "2017-02-28", "name": "MCNALLY'S IRISH PUB"}, "type": "Feature"}, {"geometry": {"coordinates": [-122.147574, 37.691511], "type": "Point"}, "properties": {"address": "985 MANOR BLVD SAN LEANDRO, CA 94579", "grade": "g", "inspection_date": "2014-08-21", "name": "MEL'S LIQUORS"}, "type": "Feature"}, {"geometry": {"coordinates": [-122.062852, 37.585881], "type": "Point"}, "properties": {"address": "32611 ALVARADO BLVD #K UNION CITY, CA 94587", "grade": "g", "inspection_date": "2014-07-09", "name": "MENCONI'S"}, "type": "Feature"}, {"geometry": {"coordinates": [-122.106025, 37.666355], "type": "Point"}, "properties": {"address": "310 W A ST HAYWARD, CA 94541", "grade": "g", "inspection_date": "2017-10-09", "name": "METRO TAQUERO"}, "type": "Feature"}, {"geometry": {"coordinates": [-122.194776, 37.729224], "type": "Point"}, "properties": {"address": "175 98TH AVE OAKLAND, CA 94603", "grade": "g", "inspection_date": "2017-08-01", "name": "SUBWAY"}, "type": "Feature"}, {"geometry": {"coordinates": [-122.075308, 37.648404], "type": "Point"}, "properties": {"address": "187 HARDER RD HAYWARD, CA 94544", "grade": "g", "inspection_date": "2014-09-08", "name": "MI PUEBLO FOOD CENTER #11"}, "type": "Feature"}, {"geometry": {"coordinates": [-122.029136, 37.536192], "type": "Point"}, "properties": {"address": "35156 NEWARK BLVD NEWARK, CA 94560", "grade": "g", "inspection_date": "2012-12-26", "name": "MI PUEBLO FOOD CENTER"}, "type": "Feature"}, {"geometry": {"coordinates": [-122.272745, 37.79739], "type": "Point"}, "properties": {"address": "85 WEBSTER ST OAKLAND, CA 94607", "grade": "g", "inspection_date": "2013-11-13", "name": "MIETTE"}, "type": "Feature"}, {"geometry": {"coordinates": [-121.952909, 37.515017], "type": "Point"}, "properties": {"address": "45401 FREMONT BLVD FREMONT, CA 94538", "grade": "g", "inspection_date": "2017-09-08", "name": "TAQUERIA LAS VEGAS FREMONT"}, "type": "Feature"}, {"geometry": {"coordinates": [-121.769881, 37.681492], "type": "Point"}, "properties": {"address": "2118 FIRST ST LIVERMORE, CA 94550", "grade": "y", "inspection_date": "2016-12-14", "name": "MIKE'S CAFE"}, "type": "Feature"}, {"geometry": {"coordinates": [-122.020385, 37.590144], "type": "Point"}, "properties": {"address": "1640 DECOTO RD UNION CITY, CA 94587", "grade": "g", "inspection_date": "2014-12-04", "name": "MILLION THAI CUISINE"}, "type": "Feature"}, {"geometry": {"coordinates": [-122.158007, 37.748588], "type": "Point"}, "properties": {"address": "5911 MACARTHUR BLVD OAKLAND, CA 94605", "grade": "g", "inspection_date": "2012-07-25", "name": "MILL'S FOOD CENTER"}, "type": "Feature"}, {"geometry": {"coordinates": [-122.158007, 37.748588], "type": "Point"}, "properties": {"address": "5930 MACARTHUR BLVD OAKLAND, CA 94605", "grade": "g", "inspection_date": "2017-04-24", "name": "MILL'S HOAGIE SHOP"}, "type": "Feature"}, {"geometry": {"coordinates": [-121.922852, 37.495863], "type": "Point"}, "properties": {"address": "39945 MISSION BLVD FREMONT, CA 94539", "grade": "g", "inspection_date": "2019-02-15", "name": "MISSION LIQUORS"}, "type": "Feature"}, {"geometry": {"coordinates": [-122.092265, 37.670097], "type": "Point"}, "properties": {"address": "486 A ST HAYWARD, CA 94541", "grade": "g", "inspection_date": "2014-08-19", "name": "MOA'S SERVICE CENTER"}, "type": "Feature"}, {"geometry": {"coordinates": [-122.264412, 37.801813], "type": "Point"}, "properties": {"address": "160 14TH ST A OAKLAND, CA 94612", "grade": " ", "inspection_date": "2019-07-22", "name": "MO'JOE CAFE OAKLAND"}, "type": "Feature"}, {"geometry": {"coordinates": [-122.246046, 37.789514], "type": "Point"}, "properties": {"address": "1400 14TH AVE A OAKLAND, CA 94606", "grade": "g", "inspection_date": "2018-02-01", "name": "MOM'S BUN MI"}, "type": "Feature"}, {"geometry": {"coordinates": [-121.934207, 37.497024], "type": "Point"}, "properties": {"address": "46851 WARM SPRINGS BLVD FREMONT, CA 94539", "grade": "g", "inspection_date": "2018-05-21", "name": "MOM'S TOFU"}, "type": "Feature"}, {"geometry": {"coordinates": [-122.233681, 37.755955], "type": "Point"}, "properties": {"address": "3215 ENCINAL AVE ALAMEDA, CA 94501", "grade": "g", "inspection_date": "2012-10-10", "name": "MONA'S TABLE"}, "type": "Feature"}, {"geometry": {"coordinates": [-122.034808, 37.572508], "type": "Point"}, "properties": {"address": "34700 FREMONT BLVD FREMONT, CA 94555", "grade": "r", "inspection_date": "2017-01-25", "name": "MOTHER TERESA CTR"}, "type": "Feature"}, {"geometry": {"coordinates": [-121.779893, 37.678881], "type": "Point"}, "properties": {"address": "1304 FIRST ST LIVERMORE, CA 94550", "grade": "g", "inspection_date": "2012-10-04", "name": "MOUNTAIN MIKE'S PIZZA"}, "type": "Feature"}, {"geometry": {"coordinates": [-122.070809, 37.650492], "type": "Point"}, "properties": {"address": "410 W HARDER RD HAYWARD, CA 94544", "grade": "g", "inspection_date": "2012-08-20", "name": "MOUNTAIN MIKES PIZZA"}, "type": "Feature"}, {"geometry": {"coordinates": [-122.018989, 37.588229], "type": "Point"}, "properties": {"address": "1760 DECOTO RD UNION CITY, CA 94587", "grade": "y", "inspection_date": "2019-04-30", "name": "MR KEBAB"}, "type": "Feature"}, {"geometry": {"coordinates": [-121.896145, 37.677402], "type": "Point"}, "properties": {"address": "3059 HOPYARD RD #I PLEASANTON, CA 94566", "grade": " ", "inspection_date": "2012-06-25", "name": "MR PICKLES SANDWICH SHOP"}, "type": "Feature"}, {"geometry": {"coordinates": [-122.268912, 37.79904], "type": "Point"}, "properties": {"address": "251 9TH ST OAKLAND, CA 94607", "grade": " ", "inspection_date": "2016-12-23", "name": "MUSIC CAFE"}, "type": "Feature"}, {"geometry": {"coordinates": [-122.023704, 37.540784], "type": "Point"}, "properties": {"address": "39127 CEDAR BLVD NEWARK, CA 94560", "grade": "g", "inspection_date": "2017-02-27", "name": "MY THO VIETNAMESE RESTAURANT"}, "type": "Feature"}, {"geometry": {"coordinates": [-122.276605, 37.833195], "type": "Point"}, "properties": {"address": "1000 42ND ST EMERYVILLE, CA 94608", "grade": "g", "inspection_date": "2016-10-13", "name": "N OAKLAND COMM CHARTER SCHOOL"}, "type": "Feature"}, {"geometry": {"coordinates": [-122.280519, 37.825657], "type": "Point"}, "properties": {"address": "3401 ADELINE ST OAKLAND, CA 94608", "grade": "g", "inspection_date": "2012-09-24", "name": "NASSAN MARKET"}, "type": "Feature"}, {"geometry": {"coordinates": [-122.156165, 37.724458], "type": "Point"}, "properties": {"address": "1335 WASHINGTON AVE SAN LEANDRO, CA 94577", "grade": "g", "inspection_date": "2015-01-22", "name": "NATION'S GIANT HAMBURGER #20"}, "type": "Feature"}, {"geometry": {"coordinates": [-122.276783, 37.772527], "type": "Point"}, "properties": {"address": "1432 WEBSTER ST ALAMEDA, CA 94501", "grade": "g", "inspection_date": "2018-06-05", "name": "NATION'S GIANT HAMBURGERS"}, "type": "Feature"}, {"geometry": {"coordinates": [-122.289623, 37.801091], "type": "Point"}, "properties": {"address": "1155 3RD ST OAKLAND, CA 94607", "grade": "g", "inspection_date": "2013-01-16", "name": "NELLIE'S"}, "type": "Feature"}, {"geometry": {"coordinates": [-122.03365, 37.538515], "type": "Point"}, "properties": {"address": "36601 NEWARK BLVD #3 NEWARK, CA 94560", "grade": " ", "inspection_date": "2016-10-26", "name": "NEVERIA COSTA ALEGRE"}, "type": "Feature"}, {"geometry": {"coordinates": [-122.064614, 37.682875], "type": "Point"}, "properties": {"address": "22620 VERMONT ST HAYWARD, CA 94541", "grade": "g", "inspection_date": "2016-11-29", "name": "NEVERIA OASIS"}, "type": "Feature"}, {"geometry": {"coordinates": [-122.120386, 37.646345], "type": "Point"}, "properties": {"address": "2010 AMERICAN AVE HAYWARD, CA 94545", "grade": "g", "inspection_date": "2013-04-11", "name": "NEW BURGER ROAD"}, "type": "Feature"}, {"geometry": {"coordinates": [-122.127637, 37.704574], "type": "Point"}, "properties": {"address": "15073 E 14TH ST SAN LEANDRO, CA 94578", "grade": "y", "inspection_date": "2013-10-31", "name": "NEW DRAGON BUFFET"}, "type": "Feature"}, {"geometry": {"coordinates": [-121.934207, 37.497024], "type": "Point"}, "properties": {"address": "47918 WARM SPRINGS BLVD #A FREMONT, CA 94539", "grade": "g", "inspection_date": "2014-05-21", "name": "SUBWAY STORE #48745"}, "type": "Feature"}, {"geometry": {"coordinates": [-122.272067, 37.799426], "type": "Point"}, "properties": {"address": "377 8TH ST OAKLAND, CA 94607", "grade": "y", "inspection_date": "2014-12-18", "name": "NEW SANG CHONG"}, "type": "Feature"}, {"geometry": {"coordinates": [-122.023704, 37.540784], "type": "Point"}, "properties": {"address": "39029 CEDAR BLVD NEWARK, CA 94560", "grade": "g", "inspection_date": "2015-09-03", "name": "NEW TUNG KEE NOODLE HOUSE"}, "type": "Feature"}, {"geometry": {"coordinates": [-122.051306, 37.548072], "type": "Point"}, "properties": {"address": "6267 JARVIS AVE NEWARK, CA 94560", "grade": "g", "inspection_date": "2015-04-23", "name": "NEW VENUS CAFE"}, "type": "Feature"}, {"geometry": {"coordinates": [-122.029136, 37.536192], "type": "Point"}, "properties": {"address": "35201 NEWARK BLVD #A NEWARK, CA 94560", "grade": "g", "inspection_date": "2016-07-27", "name": "NEWARK CAFE"}, "type": "Feature"}, {"geometry": {"coordinates": [-122.03365, 37.538515], "type": "Point"}, "properties": {"address": "36601 NEWARK BLVD #3 NEWARK, CA 94560", "grade": " ", "inspection_date": "2012-05-02", "name": "NEWARK FISH MARKET"}, "type": "Feature"}, {"geometry": {"coordinates": [-121.971499, 37.576422], "type": "Point"}, "properties": {"address": "38003 MISSION BLVD A FREMONT, CA 94536", "grade": "g", "inspection_date": "2016-07-15", "name": "NILES DONUTS"}, "type": "Feature"}, {"geometry": {"coordinates": [-122.252627, 37.826211], "type": "Point"}, "properties": {"address": "4066 PIEDMONT AVE OAKLAND, CA 94611", "grade": "g", "inspection_date": "2019-04-26", "name": "NINNA"}, "type": "Feature"}, {"geometry": {"coordinates": [-122.160012, 37.730238], "type": "Point"}, "properties": {"address": "111 E 14TH ST SAN LEANDRO, CA 94577", "grade": "g", "inspection_date": "2017-03-14", "name": "NK QUICKSERVE"}, "type": "Feature"}, {"geometry": {"coordinates": [-122.216567, 37.773318], "type": "Point"}, "properties": {"address": "4108 INTERNATIONAL BLVD OAKLAND, CA 94601", "grade": "g", "inspection_date": "2015-09-02", "name": "NYC BUFFET"}, "type": "Feature"}, {"geometry": {"coordinates": [-122.284016, 37.844069], "type": "Point"}, "properties": {"address": "5849 SAN PABLO AVE OAKLAND, CA 94608", "grade": "g", "inspection_date": "2017-10-18", "name": "OAK KAO"}, "type": "Feature"}, {"geometry": {"coordinates": [-122.228376, 37.781636], "type": "Point"}, "properties": {"address": "1601 28TH AVE OAKLAND, CA 94601", "grade": "g", "inspection_date": "2014-11-19", "name": "OAK TREE GROCERY"}, "type": "Feature"}, {"geometry": {"coordinates": [-122.273011, 37.801894], "type": "Point"}, "properties": {"address": "1001 BROADWAY OAKLAND, CA 94607", "grade": "g", "inspection_date": "2012-10-31", "name": "OAKLAND MARRIOT HOTEL CITY CENTER"}, "type": "Feature"}, {"geometry": {"coordinates": [-122.272443, 37.829363], "type": "Point"}, "properties": {"address": "3877 LUSK ST OAKLAND, CA 94608", "grade": " ", "inspection_date": "2012-06-04", "name": "OAKLAND MILITARY INSTITUTE"}, "type": "Feature"}, {"geometry": {"coordinates": [-122.267963, 37.806043], "type": "Point"}, "properties": {"address": "378 17TH ST OAKLAND, CA 94612", "grade": "g", "inspection_date": "2015-06-09", "name": "OAKLAND MINI MARKET"}, "type": "Feature"}, {"geometry": {"coordinates": [-122.262654, 37.80151], "type": "Point"}, "properties": {"address": "1547 LAKESIDE DR OAKLAND, CA 94612", "grade": "g", "inspection_date": "2018-10-09", "name": "OAKLAND SCOTTISH RITE CENTER"}, "type": "Feature"}, {"geometry": {"coordinates": [-121.972503, 37.506234], "type": "Point"}, "properties": {"address": "43566 CHRISTY ST FREMONT, CA 94538", "grade": " ", "inspection_date": "2015-02-13", "name": "OHANA HAWAIIAN BBQ"}, "type": "Feature"}, {"geometry": {"coordinates": [-121.972503, 37.506234], "type": "Point"}, "properties": {"address": "43566 CHRISTY ST FREMONT, CA 94538", "grade": "g", "inspection_date": "2019-03-07", "name": "OHANA HAWAIIAN BBQ"}, "type": "Feature"}, {"geometry": {"coordinates": [-122.27956, 37.821096], "type": "Point"}, "properties": {"address": "2940 LINDEN ST OAKLAND, CA 94608", "grade": "g", "inspection_date": "2017-04-14", "name": "ORLANDO MARKET"}, "type": "Feature"}, {"geometry": {"coordinates": [-122.02793, 37.539946], "type": "Point"}, "properties": {"address": "5660 THORNTON AVE NEWARK, CA 94560", "grade": "y", "inspection_date": "2016-12-05", "name": "O'SULLIVAN'S SPORTS BAR"}, "type": "Feature"}, {"geometry": {"coordinates": [-122.276927, 37.795605], "type": "Point"}, "properties": {"address": "101 BROADWAY OAKLAND, CA 94607", "grade": "y", "inspection_date": "2017-07-05", "name": "OVERLAND"}, "type": "Feature"}, {"geometry": {"coordinates": [-121.932927, 37.494881], "type": "Point"}, "properties": {"address": "45915 WARM SPRINGS BLVD FREMONT, CA 94539", "grade": "g", "inspection_date": "2015-01-30", "name": "SPIN A YARN"}, "type": "Feature"}, {"geometry": {"coordinates": [-121.981065, 37.553932], "type": "Point"}, "properties": {"address": "38990 PASEO PADRE PKWY #B FREMONT, CA 94538", "grade": "g", "inspection_date": "2012-11-05", "name": "P J'S BAGELS"}, "type": "Feature"}, {"geometry": {"coordinates": [-122.127637, 37.704574], "type": "Point"}, "properties": {"address": "15073 E 14TH ST SAN LEANDRO, CA 94578", "grade": "y", "inspection_date": "2016-09-28", "name": "PACIFIC DRAGON BUFFET"}, "type": "Feature"}, {"geometry": {"coordinates": [-122.027932, 37.539943], "type": "Point"}, "properties": {"address": "5696 THORNTON AVE NEWARK, CA 94560", "grade": "g", "inspection_date": "2015-04-29", "name": "PALATINO"}, "type": "Feature"}, {"geometry": {"coordinates": [-122.024304, 37.530649], "type": "Point"}, "properties": {"address": "5480 CENTRAL AVE NEWARK, CA 94560", "grade": "g", "inspection_date": "2019-01-07", "name": "PAL'S PIZZA & GRILL"}, "type": "Feature"}, {"geometry": {"coordinates": [-122.160249, 37.730303], "type": "Point"}, "properties": {"address": "688 E 14TH ST SAN LEANDRO, CA 94577", "grade": "g", "inspection_date": "2014-10-16", "name": "PANADERIA EL PUEBLO #3"}, "type": "Feature"}, {"geometry": {"coordinates": [-121.774548, 37.691292], "type": "Point"}, "properties": {"address": "2002 PORTOLA AVE #E LIVERMORE, CA 94550", "grade": "g", "inspection_date": "2013-02-06", "name": "PAPA MURPHY'S PIZZA"}, "type": "Feature"}, {"geometry": {"coordinates": [-121.999787, 37.534637], "type": "Point"}, "properties": {"address": "5176 MOWRY AVE FREMONT, CA 94538", "grade": "g", "inspection_date": "2015-12-09", "name": "PAPA MURPHY'S"}, "type": "Feature"}, {"geometry": {"coordinates": [-122.12992, 37.686511], "type": "Point"}, "properties": {"address": "15939 HESPERIAN BLVD SAN LORENZO, CA 94580", "grade": "g", "inspection_date": "2019-07-17", "name": "PAPA PANCHO'S TAQUERIA"}, "type": "Feature"}, {"geometry": {"coordinates": [-122.268667, 37.809868], "type": "Point"}, "properties": {"address": "2025 BROADWAY OAKLAND, CA 94612", "grade": "g", "inspection_date": "2012-10-30", "name": "PARAMOUNT THEATRE"}, "type": "Feature"}, {"geometry": {"coordinates": [-122.267075, 37.806859], "type": "Point"}, "properties": {"address": "357 19TH ST OAKLAND, CA 94612", "grade": "g", "inspection_date": "2018-09-17", "name": "PARLOUR"}, "type": "Feature"}, {"geometry": {"coordinates": [-121.992847, 37.519668], "type": "Point"}, "properties": {"address": "5862 MOWRY SCHOOL RD NEWARK, CA 94560", "grade": "g", "inspection_date": "2018-01-30", "name": "PEACH GARDEN"}, "type": "Feature"}, {"geometry": {"coordinates": [-121.874396, 37.705718], "type": "Point"}, "properties": {"address": "6608 DUBLIN BLVD DUBLIN, CA 94568", "grade": "g", "inspection_date": "2015-11-02", "name": "PEACOCK INDIAN CUISINE"}, "type": "Feature"}, {"geometry": {"coordinates": [-122.176229, 37.699167], "type": "Point"}, "properties": {"address": "13762 DOOLITTLE DR SAN LEANDRO, CA 94577", "grade": "g", "inspection_date": "2016-09-29", "name": "PEARL BAY TEA HOUSE"}, "type": "Feature"}, {"geometry": {"coordinates": [-122.267351, 37.793158], "type": "Point"}, "properties": {"address": "260 OAK ST OAKLAND, CA 94607", "grade": "g", "inspection_date": "2015-08-24", "name": "PEERLESS COFFEE"}, "type": "Feature"}, {"geometry": {"coordinates": [-122.246237, 37.7274], "type": "Point"}, "properties": {"address": "2001 HARBOR BAY PKWY ALAMEDA, CA 94502", "grade": "g", "inspection_date": "2018-07-31", "name": "PEET'S COFFEE & TEA"}, "type": "Feature"}, {"geometry": {"coordinates": [-122.259027, 37.809592], "type": "Point"}, "properties": {"address": "3307 GRAND AVE OAKLAND, CA 94608", "grade": "g", "inspection_date": "2015-11-19", "name": "PENROSE"}, "type": "Feature"}, {"geometry": {"coordinates": [-122.272145, 37.807114], "type": "Point"}, "properties": {"address": "354 17TH ST OAKLAND, CA 94612", "grade": "g", "inspection_date": "2017-08-18", "name": "PHO 84"}, "type": "Feature"}, {"geometry": {"coordinates": [-121.987667, 37.549445], "type": "Point"}, "properties": {"address": "3846 MOWRY AVE FREMONT, CA 94538", "grade": "y", "inspection_date": "2014-02-21", "name": "GATERS"}, "type": "Feature"}, {"geometry": {"coordinates": [-122.091683, 37.670152], "type": "Point"}, "properties": {"address": "505 A ST B HAYWARD, CA 94541", "grade": "g", "inspection_date": "2013-05-20", "name": "EXPRESS PIZZA"}, "type": "Feature"}, {"geometry": {"coordinates": [-121.875174, 37.661923], "type": "Point"}, "properties": {"address": "201 MAIN ST #E PLEASANTON, CA 94566", "grade": " ", "inspection_date": "2012-06-28", "name": "PHO HOA NOODLE SOUP"}, "type": "Feature"}, {"geometry": {"coordinates": [-122.264816, 37.819124], "type": "Point"}, "properties": {"address": "400 30TH ST OAKLAND, CA 94609", "grade": "y", "inspection_date": "2012-09-17", "name": "PILL HILL DELI"}, "type": "Feature"}, {"geometry": {"coordinates": [-122.170158, 37.721337], "type": "Point"}, "properties": {"address": "1288 DAVIS ST SAN LEANDRO, CA 94577", "grade": "g", "inspection_date": "2018-11-09", "name": "DAVIS PLAZA MARKET"}, "type": "Feature"}, {"geometry": {"coordinates": [-121.72414, 37.718289], "type": "Point"}, "properties": {"address": "1545 N VASCO RD LIVERMORE, CA 94551", "grade": "r", "inspection_date": "2013-11-21", "name": "PIZZA GUYS #151"}, "type": "Feature"}, {"geometry": {"coordinates": [-121.72414, 37.718289], "type": "Point"}, "properties": {"address": "1545 N VASCO RD LIVERMORE, CA 94551", "grade": "g", "inspection_date": "2017-08-23", "name": "PIZZA GUYS #151"}, "type": "Feature"}, {"geometry": {"coordinates": [-121.874978, 37.662717], "type": "Point"}, "properties": {"address": "707 MAIN ST PLEASANTON, CA 94566", "grade": "g", "inspection_date": "2018-09-07", "name": "PLEASANTON COAST STATION"}, "type": "Feature"}, {"geometry": {"coordinates": [-122.070545, 37.589147], "type": "Point"}, "properties": {"address": "4123 DYER ST UNION CITY, CA 94587", "grade": "g", "inspection_date": "2013-03-14", "name": "ELITE BAKERY"}, "type": "Feature"}, {"geometry": {"coordinates": [-121.746868, 37.680045], "type": "Point"}, "properties": {"address": "4086 EAST AVE LIVERMORE, CA 94550", "grade": "g", "inspection_date": "2019-04-23", "name": "DANDY DOGS"}, "type": "Feature"}, {"geometry": {"coordinates": [-122.29229, 37.813716], "type": "Point"}, "properties": {"address": "1733 PERALTA ST OAKLAND, CA 94607", "grade": "y", "inspection_date": "2017-04-05", "name": "PRETTY LADY RESTAURANT"}, "type": "Feature"}, {"geometry": {"coordinates": [-121.910364, 37.709133], "type": "Point"}, "properties": {"address": "6058 DOUGHERTY RD DUBLIN, CA 94568", "grade": "g", "inspection_date": "2013-01-17", "name": "DENICA'S"}, "type": "Feature"}, {"geometry": {"coordinates": [-122.270319, 37.803918], "type": "Point"}, "properties": {"address": "409 14TH ST OAKLAND, CA 94607", "grade": "g", "inspection_date": "2014-10-30", "name": "EXPRESSO GOURMET"}, "type": "Feature"}, {"geometry": {"coordinates": [-122.220479, 37.78309], "type": "Point"}, "properties": {"address": "3340 FOOTHILL BLVD OAKLAND, CA 94601", "grade": "g", "inspection_date": "2017-05-02", "name": "PUPUSERIA LUPITA"}, "type": "Feature"}, {"geometry": {"coordinates": [-121.774123, 37.67415], "type": "Point"}, "properties": {"address": "4549 CROSS RD LIVERMORE, CA 94550", "grade": "g", "inspection_date": "2015-10-29", "name": "PURPLE ORCHID RESORT AND SPA"}, "type": "Feature"}, {"geometry": {"coordinates": [-122.289393, 37.839581], "type": "Point"}, "properties": {"address": "1400 POWELL ST EMERYVILLE, CA 94608", "grade": "y", "inspection_date": "2013-02-06", "name": "EMERY BAY DELI"}, "type": "Feature"}, {"geometry": {"coordinates": [-122.1017, 37.639168], "type": "Point"}, "properties": {"address": "25034 HESPERIAN BLVD HAYWARD, CA 94545", "grade": "g", "inspection_date": "2017-12-28", "name": "QUICKLY"}, "type": "Feature"}, {"geometry": {"coordinates": [-122.242594, 37.764594], "type": "Point"}, "properties": {"address": "1431 PARK ST #A ALAMEDA, CA 94501", "grade": "g", "inspection_date": "2012-09-25", "name": "QUICKLY"}, "type": "Feature"}, {"geometry": {"coordinates": [-122.295201, 37.810158], "type": "Point"}, "properties": {"address": "1600 12TH ST OAKLAND, CA 94607", "grade": "g", "inspection_date": "2013-03-25", "name": "FAMILY MARKET"}, "type": "Feature"}, {"geometry": {"coordinates": [-121.974304, 37.501763], "type": "Point"}, "properties": {"address": "43476 BOSCELL RD FREMONT, CA 94538", "grade": "g", "inspection_date": "2018-10-18", "name": "GEN KOREAN BBQ"}, "type": "Feature"}, {"geometry": {"coordinates": [-122.271231, 37.798432], "type": "Point"}, "properties": {"address": "326 7TH ST OAKLAND, CA 94607", "grade": "g", "inspection_date": "2017-01-04", "name": "FULL HOUSE CAFE"}, "type": "Feature"}, {"geometry": {"coordinates": [-121.765836, 37.684371], "type": "Point"}, "properties": {"address": "2562 OLD 1ST ST LIVERMORE, CA 94550", "grade": "r", "inspection_date": "2018-09-17", "name": "R PLACE"}, "type": "Feature"}, {"geometry": {"coordinates": [-122.271279, 37.803344], "type": "Point"}, "properties": {"address": "435 13TH ST OAKLAND, CA 94612", "grade": "g", "inspection_date": "2012-11-07", "name": "RADIO BAR"}, "type": "Feature"}, {"geometry": {"coordinates": [-122.096029, 37.658651], "type": "Point"}, "properties": {"address": "217 W WINTON AVE HAYWARD, CA 94544", "grade": "y", "inspection_date": "2013-05-15", "name": "DIGGERS DINER"}, "type": "Feature"}, {"geometry": {"coordinates": [-121.995909, 37.539533], "type": "Point"},