{"features": [{"geometry": {"coordinates": [-122.230639, 37.774321], "type": "Point"}, "properties": {"address": "3500 E 9TH ST OAKLAND, CA 94601", "doing_business_as": "24 HOUR OPTCC", "grade": "g", "inspection_date": "2018-04-04", "violation_description": "Food contact surfaces: clean and sanitized"}, "type": "Feature"}, {"geometry": {"coordinates": [-122.297895, 37.887389], "type": "Point"}, "properties": {"address": "977 SAN PABLO AVE ALBANY, CA 94706", "doing_business_as": "SUMO SUSHI", "grade": "y", "inspection_date": "2015-08-25", "violation_description": "Proper hot and cold holding temperatures"}, "type": "Feature"}, {"geometry": {"coordinates": [-121.922852, 37.495863], "type": "Point"}, "properties": {"address": "46529 MISSION BLVD FREMONT, CA 94539", "doing_business_as": "360 BAKERY & CAFE", "grade": "g", "inspection_date": "2017-02-21", "violation_description": "Signs posted last inspection report available"}, "type": "Feature"}, {"geometry": {"coordinates": [-121.778047, 37.679007], "type": "Point"}, "properties": {"address": "1472 FIRST ST LIVERMORE, CA 94550", "doing_business_as": "STARBUCKS COFFEE #5311", "grade": "g", "inspection_date": "2014-07-30", "violation_description": "No rodents, insects, birds, or animals"}, "type": "Feature"}, {"geometry": {"coordinates": [-122.097391, 37.633345], "type": "Point"}, "properties": {"address": "2175 ALDENGATE WAY HAYWARD, CA 94545", "doing_business_as": "7-ELEVEN FOOD STORE #14182", "grade": "g", "inspection_date": "2014-03-18", "violation_description": "Nonfood-contact surfaces clean"}, "type": "Feature"}, {"geometry": {"coordinates": [-122.151854, 37.691354], "type": "Point"}, "properties": {"address": "1240 MANOR BLVD SAN LEANDRO, CA 94578", "doing_business_as": "7-ELEVEN FOOD STORE #17008", "grade": "g", "inspection_date": "2017-04-28", "violation_description": "Hot and cold water available"}, "type": "Feature"}, {"geometry": {"coordinates": [-121.926437, 37.491757], "type": "Point"}, "properties": {"address": "46650 MOHAVE DR FREMONT, CA 94539", "doing_business_as": "7-ELEVEN FOOD STORE #26596", "grade": "g", "inspection_date": "2017-06-05", "violation_description": "Nonfood-contact surfaces clean"}, "type": "Feature"}, {"geometry": {"coordinates": [-122.029136, 37.536192], "type": "Point"}, "properties": {"address": "35201 NEWARK BLVD V NEWARK, CA 94560", "doing_business_as": "85 DEGREES BAKERY CAFE", "grade": "No Grade Recorded", "inspection_date": "2016-11-08", "violation_description": "Nonfood-contact surfaces clean"}, "type": "Feature"}, {"geometry": {"coordinates": [-121.853186, 37.714799], "type": "Point"}, "properties": {"address": "3880 FALLON RD DUBLIN, CA 94568", "doing_business_as": "88 BAO BAO", "grade": "g", "inspection_date": "2019-04-24", "violation_description": "Signs posted last inspection report available"}, "type": "Feature"}, {"geometry": {"coordinates": [-122.136499, 37.710778], "type": "Point"}, "properties": {"address": "14405 E 14TH ST SAN LEANDRO, CA 94578", "doing_business_as": "88 FOOD MARKET", "grade": "y", "inspection_date": "2016-09-27", "violation_description": "Impoundment"}, "type": "Feature"}, {"geometry": {"coordinates": [-122.271082, 37.799042], "type": "Point"}, "properties": {"address": "337 8TH ST OAKLAND, CA 94607", "doing_business_as": "8TH STREET CAFE", "grade": "g", "inspection_date": "2013-06-24", "violation_description": "Food separated and protected"}, "type": "Feature"}, {"geometry": {"coordinates": [-122.098581, 37.684179], "type": "Point"}, "properties": {"address": "20882 MISSION BLVD HAYWARD, CA 94541", "doing_business_as": "99 CENTS ONLY STORE #217", "grade": "g", "inspection_date": "2018-01-03", "violation_description": "Food properly labeled & honestly presented"}, "type": "Feature"}, {"geometry": {"coordinates": [-122.283328, 37.80272], "type": "Point"}, "properties": {"address": "1440 7TH ST OAKLAND, CA 94607", "doing_business_as": "99 CENTS ONLY STORE #278", "grade": "g", "inspection_date": "2014-03-06", "violation_description": "Hot and cold water available"}, "type": "Feature"}, {"geometry": {"coordinates": [-122.076107, 37.631285], "type": "Point"}, "properties": {"address": "1114 W TENNYSON RD HAYWARD, CA 94544", "doing_business_as": "99 CENTS", "grade": "g", "inspection_date": "2016-05-19", "violation_description": "Plan Review"}, "type": "Feature"}, {"geometry": {"coordinates": [-122.039234, 37.575335], "type": "Point"}, "properties": {"address": "34444 FREMONT BLVD FREMONT, CA 94555", "doing_business_as": "99 RANCH MARKET #62", "grade": "y", "inspection_date": "2019-03-28", "violation_description": "Food contact surfaces: clean and sanitized"}, "type": "Feature"}, {"geometry": {"coordinates": [-122.039234, 37.575335], "type": "Point"}, "properties": {"address": "34444 FREMONT BLVD FREMONT, CA 94555", "doing_business_as": "99 RANCH MARKET", "grade": "g", "inspection_date": "2014-08-18", "violation_description": "Food contact surfaces: clean and sanitized"}, "type": "Feature"}, {"geometry": {"coordinates": [-122.039234, 37.575335], "type": "Point"}, "properties": {"address": "34444 FREMONT BLVD FREMONT, CA 94555", "doing_business_as": "99 RANCH MARKET", "grade": "y", "inspection_date": "2015-01-13", "violation_description": "Nonfood-contact surfaces clean"}, "type": "Feature"}, {"geometry": {"coordinates": [-122.284774, 37.846819], "type": "Point"}, "properties": {"address": "6334 SAN PABLO AVE OAKLAND, CA 94608", "doing_business_as": "ACTUAL CAFE", "grade": "g", "inspection_date": "2019-05-06", "violation_description": "Proper cooling methods"}, "type": "Feature"}, {"geometry": {"coordinates": [-121.777351, 37.680467], "type": "Point"}, "properties": {"address": "1554 FIRST ST LIVERMORE, CA 94550", "doing_business_as": "ADVANTAGE FOOD SAMPLING PROGRAM @ SAFEWAY #910", "grade": "g", "inspection_date": "2018-04-19", "violation_description": "Plan Review"}, "type": "Feature"}, {"geometry": {"coordinates": [-121.777351, 37.680467], "type": "Point"}, "properties": {"address": "1554 FIRST ST LIVERMORE, CA 94550", "doing_business_as": "AFC SUSHI @ SAFEWAY #910", "grade": "g", "inspection_date": "2017-01-25", "violation_description": "Proper hot and cold holding temperatures"}, "type": "Feature"}, {"geometry": {"coordinates": [-122.075802, 37.632358], "type": "Point"}, "properties": {"address": "27521 TAMPA AVE HAYWARD, CA 94544", "doing_business_as": "AFGHAN MARKET", "grade": "g", "inspection_date": "2014-03-17", "violation_description": "Nonfood-contact surfaces clean"}, "type": "Feature"}, {"geometry": {"coordinates": [-122.254729, 37.799233], "type": "Point"}, "properties": {"address": "1603 2ND AVE OAKLAND, CA 94606", "doing_business_as": "A-KAT CAFE KALLI", "grade": "g", "inspection_date": "2016-12-09", "violation_description": "Wiping cloths: properly used and stored"}, "type": "Feature"}, {"geometry": {"coordinates": [-121.888555, 37.661991], "type": "Point"}, "properties": {"address": "4501 PLEASANTON AVE PLEASANTON, CA 94566", "doing_business_as": "ALAMEDA COUNTY FAIR-SAT WGRING SNAC", "grade": "g", "inspection_date": "2013-07-24", "violation_description": "Hot and cold water available"}, "type": "Feature"}, {"geometry": {"coordinates": [-122.276714, 37.774445], "type": "Point"}, "properties": {"address": "1538 WEBSTER ST ALAMEDA, CA 94501", "doing_business_as": "ALAMEDA PIZZA", "grade": "No Grade Recorded", "inspection_date": "2015-03-24", "violation_description": "Plan Review"}, "type": "Feature"}, {"geometry": {"coordinates": [-122.301079, 37.896191], "type": "Point"}, "properties": {"address": "540 SAN PABLO AVE ALBANY, CA 94706", "doing_business_as": "ALBANY BOWL BAR", "grade": "g", "inspection_date": "2013-08-29", "violation_description": "Nonfood-contact surfaces clean"}, "type": "Feature"}, {"geometry": {"coordinates": [-122.295346, 37.897675], "type": "Point"}, "properties": {"address": "1259 BRIGHTON ST ALBANY, CA 94706", "doing_business_as": "ALBANY MIDDLE SCHOOL", "grade": "g", "inspection_date": "2013-11-13", "violation_description": "Thermometers provided and accurate"}, "type": "Feature"}, {"geometry": {"coordinates": [-121.873238, 37.66802], "type": "Point"}, "properties": {"address": "1155 SANTA RITA RD PLEASANTON, CA 94566", "doing_business_as": "AMADOR HIGH SCHOOL", "grade": "g", "inspection_date": "2018-03-29", "violation_description": "Consumer self service"}, "type": "Feature"}, {"geometry": {"coordinates": [-122.268281, 37.814126], "type": "Point"}, "properties": {"address": "2427 TELEGRAPH AVE OAKLAND, CA 94612", "doing_business_as": "AMAZONAS PIZZA", "grade": "No Grade Recorded", "inspection_date": "2016-12-06", "violation_description": "No rodents, insects, birds, or animals"}, "type": "Feature"}, {"geometry": {"coordinates": [-122.083239, 37.673603], "type": "Point"}, "properties": {"address": "22530 MAIN ST HAYWARD, CA 94544", "doing_business_as": "AMERICANA PIZZA INC", "grade": "g", "inspection_date": "2014-05-06", "violation_description": "Signs posted last inspection report available"}, "type": "Feature"}, {"geometry": {"coordinates": [-122.166455, 37.730676], "type": "Point"}, "properties": {"address": "300 PARK ST ALAMEDA, CA 94501", "doing_business_as": "AMF SOUTHSHORE LANES", "grade": "g", "inspection_date": "2017-12-13", "violation_description": "Plan Review"}, "type": "Feature"}, {"geometry": {"coordinates": [-122.003105, 37.528376], "type": "Point"}, "properties": {"address": "5988 NEWPARK MALL NEWARK, CA 94560", "doing_business_as": "AMMA'S", "grade": "g", "inspection_date": "2013-11-12", "violation_description": "Nonfood-contact surfaces clean"}, "type": "Feature"}, {"geometry": {"coordinates": [-122.270189, 37.804052], "type": "Point"}, "properties": {"address": "414 14TH ST OAKLAND, CA 94612", "doing_business_as": "ANALOG", "grade": "g", "inspection_date": "2015-05-11", "violation_description": "Plan Review"}, "type": "Feature"}, {"geometry": {"coordinates": [-122.207631, 37.714221], "type": "Point"}, "properties": {"address": "1 AIRPORT DR OAKLAND, CA 94621", "doing_business_as": "ANDALE'S SATELLITE ROOM 1151", "grade": "g", "inspection_date": "2016-12-07", "violation_description": "Proper cooling methods"}, "type": "Feature"}, {"geometry": {"coordinates": [-121.952909, 37.515017], "type": "Point"}, "properties": {"address": "39990 FREMONT BLVD FREMONT, CA 94538", "doing_business_as": "ANDY'S VALERO", "grade": "g", "inspection_date": "2017-03-28", "violation_description": "Food separated and protected"}, "type": "Feature"}, {"geometry": {"coordinates": [-122.243827, 37.762819], "type": "Point"}, "properties": {"address": "1319 PARK ST ALAMEDA, CA 94501", "doing_business_as": "ANGKOR GRILL", "grade": "g", "inspection_date": "2015-09-30", "violation_description": "Nonfood-contact surfaces clean"}, "type": "Feature"}, {"geometry": {"coordinates": [-121.987523, 37.549626], "type": "Point"}, "properties": {"address": "3810 MOWRY AVE FREMONT, CA 94538", "doing_business_as": "ANIKI'S SUSHI", "grade": "y", "inspection_date": "2013-12-11", "violation_description": "Thermometers provided and accurate"}, "type": "Feature"}, {"geometry": {"coordinates": [-122.024304, 37.530649], "type": "Point"}, "properties": {"address": "5486 CENTRAL AVE NEWARK, CA 94560", "doing_business_as": "ANNY'S FAMILY RESTAURANT", "grade": "y", "inspection_date": "2013-06-24", "violation_description": "Food separated and protected"}, "type": "Feature"}, {"geometry": {"coordinates": [-122.270388, 37.803384], "type": "Point"}, "properties": {"address": "1319 FRANKLIN ST OAKLAND, CA 94612", "doing_business_as": "ANUL'S CAFE", "grade": "g", "inspection_date": "2018-06-06", "violation_description": "Food contact surfaces: clean and sanitized"}, "type": "Feature"}, {"geometry": {"coordinates": [-121.750587, 37.69203], "type": "Point"}, "properties": {"address": "4301 N FIRST ST LIVERMORE, CA 94550", "doing_business_as": "APPLEBEES", "grade": "y", "inspection_date": "2013-11-14", "violation_description": "Nonfood-contact surfaces clean"}, "type": "Feature"}, {"geometry": {"coordinates": [-122.023704, 37.540784], "type": "Point"}, "properties": {"address": "39201 CEDAR BLVD NEWARK, CA 94560", "doing_business_as": "ARBY'S", "grade": "g", "inspection_date": "2013-05-10", "violation_description": "Nonfood-contact surfaces clean"}, "type": "Feature"}, {"geometry": {"coordinates": [-122.232992, 37.804592], "type": "Point"}, "properties": {"address": "3310 PARK BLVD OAKLAND, CA 94610", "doing_business_as": "ARCO AM PM", "grade": "g", "inspection_date": "2013-05-14", "violation_description": "Permits Available"}, "type": "Feature"}, {"geometry": {"coordinates": [-122.202932, 37.750273], "type": "Point"}, "properties": {"address": "7000 COLISEUM WAY OAKLAND, CA 94621", "doing_business_as": "ARENA MC LEVEL #109B", "grade": "g", "inspection_date": "2014-10-29", "violation_description": "Nonfood-contact surfaces clean"}, "type": "Feature"}, {"geometry": {"coordinates": [-122.202932, 37.750273], "type": "Point"}, "properties": {"address": "7000 COLISEUM WAY OAKLAND, CA 94621", "doing_business_as": "ARENA MC LEVEL #VR33S", "grade": "g", "inspection_date": "2014-07-18", "violation_description": "Signs posted last inspection report available"}, "type": "Feature"}, {"geometry": {"coordinates": [-122.202932, 37.750273], "type": "Point"}, "properties": {"address": "7000 COLISEUM WAY OAKLAND, CA 94621", "doing_business_as": "ARENA UC LEVEL #A215", "grade": "g", "inspection_date": "2014-05-27", "violation_description": "Plumbing proper backflow devices"}, "type": "Feature"}, {"geometry": {"coordinates": [-122.02792, 37.539958], "type": "Point"}, "properties": {"address": "5524 THORNTON AVE NEWARK, CA 94560", "doing_business_as": "ARTEAGAS FOOD CENTER", "grade": "y", "inspection_date": "2014-04-29", "violation_description": "Proper cooling methods"}, "type": "Feature"}, {"geometry": {"coordinates": [-122.098276, 37.633538], "type": "Point"}, "properties": {"address": "26930 HESPERIAN BLVD HAYWARD, CA 94545", "doing_business_as": "ASIA DELIGHT #4", "grade": "g", "inspection_date": "2013-03-14", "violation_description": "Signs posted last inspection report available"}, "type": "Feature"}, {"geometry": {"coordinates": [-122.162878, 37.711826], "type": "Point"}, "properties": {"address": "1209 MARINA BLVD SAN LEANDRO, CA 94579", "doing_business_as": "STARBUCKS #5545", "grade": "g", "inspection_date": "2014-12-15", "violation_description": "Plumbing proper backflow devices"}, "type": "Feature"}, {"geometry": {"coordinates": [-122.265341, 37.813634], "type": "Point"}, "properties": {"address": "2430 BROADWAY OAKLAND, CA 94612", "doing_business_as": "AU LOUNGE", "grade": "g", "inspection_date": "2016-08-12", "violation_description": "Food separated and protected"}, "type": "Feature"}, {"geometry": {"coordinates": [-122.272375, 37.799847], "type": "Point"}, "properties": {"address": "812 FRANKLIN ST OAKLAND, CA 94607", "doing_business_as": "BA LE FRENCH COFFEE SHOP", "grade": "r", "inspection_date": "2015-04-06", "violation_description": "No rodents, insects, birds, or animals"}, "type": "Feature"}, {"geometry": {"coordinates": [-122.005979, 37.557751], "type": "Point"}, "properties": {"address": "37422 FREMONT BLVD FREMONT, CA 94536", "doing_business_as": "BACK DOOR LOUNGE", "grade": "g", "inspection_date": "2014-07-11", "violation_description": "Food in good condition, safe and unadulterated"}, "type": "Feature"}, {"geometry": {"coordinates": [-122.252476, 37.826242], "type": "Point"}, "properties": {"address": "4070 PIEDMONT AVE OAKLAND, CA 94611", "doing_business_as": "BAJA TAQUERIA", "grade": "g", "inspection_date": "2012-10-31", "violation_description": "Nonfood-contact surfaces clean"}, "type": "Feature"}, {"geometry": {"coordinates": [-122.034267, 37.605944], "type": "Point"}, "properties": {"address": "1854 WHIPPLE RD UNION CITY, CA 94587", "doing_business_as": "BAKERY-TAQUERIA UNO", "grade": "g", "inspection_date": "2019-08-27", "violation_description": "Food obtained from approved source"}, "type": "Feature"}, {"geometry": {"coordinates": [-121.978711, 37.550828], "type": "Point"}, "properties": {"address": "3241 WALNUT AVE FREMONT, CA 94538", "doing_business_as": "BASIL LEAF ASIAN CUISINE", "grade": "g", "inspection_date": "2012-12-04", "violation_description": "Proper cooling methods"}, "type": "Feature"}, {"geometry": {"coordinates": [-121.77919, 37.678476], "type": "Point"}, "properties": {"address": "4323 FIRST ST LIVERMORE, CA 94551", "doing_business_as": "BASKIN ROBBINS", "grade": "g", "inspection_date": "2012-09-19", "violation_description": "Signs posted last inspection report available"}, "type": "Feature"}, {"geometry": {"coordinates": [-122.254758, 37.824495], "type": "Point"}, "properties": {"address": "3853 PIEDMONT AVE OAKLAND, CA 94611", "doing_business_as": "BAY WOLF RESTAURANT", "grade": "g", "inspection_date": "2012-10-08", "violation_description": "Permits Available"}, "type": "Feature"}, {"geometry": {"coordinates": [-122.26563, 37.811068], "type": "Point"}, "properties": {"address": "2225 WEBSTER ST OAKLAND, CA 94612", "doing_business_as": "BAYGREENS", "grade": "g", "inspection_date": "2017-03-01", "violation_description": "Proper cooling methods"}, "type": "Feature"}, {"geometry": {"coordinates": [-122.233756, 37.768718], "type": "Point"}, "properties": {"address": "2601 BLANDING AVE B ALAMEDA, CA 94501", "doing_business_as": "BB BOWL", "grade": "g", "inspection_date": "2017-03-23", "violation_description": "Food separated and protected"}, "type": "Feature"}, {"geometry": {"coordinates": [-121.818612, 37.703304], "type": "Point"}, "properties": {"address": "1051 AIRWAY BLVD LIVERMORE, CA 94550", "doing_business_as": "BERNARD'S CHEVRON", "grade": "g", "inspection_date": "2018-10-16", "violation_description": "Permits Available"}, "type": "Feature"}, {"geometry": {"coordinates": [-122.272369, 37.799857], "type": "Point"}, "properties": {"address": "814 FRANKLIN ST OAKLAND, CA 94607", "doing_business_as": "BEST TASTE RESTAURANT", "grade": "y", "inspection_date": "2013-03-14", "violation_description": "Nonfood-contact surfaces clean"}, "type": "Feature"}, {"geometry": {"coordinates": [-122.25797, 37.82834], "type": "Point"}, "properties": {"address": "360 40TH ST OAKLAND, CA 94609", "doing_business_as": "BIERHAUS", "grade": "g", "inspection_date": "2019-02-27", "violation_description": "Adequate handwashing facilities supplied & accessi"}, "type": "Feature"}, {"geometry": {"coordinates": [-122.083318, 37.672378], "type": "Point"}, "properties": {"address": "943 B ST HAYWARD, CA 94541", "doing_business_as": "BLUE COLT CLUB", "grade": "g", "inspection_date": "2019-07-29", "violation_description": "Food contact surfaces: clean and sanitized"}, "type": "Feature"}, {"geometry": {"coordinates": [-122.254349, 37.766825], "type": "Point"}, "properties": {"address": "1910 ENCINAL AVE ALAMEDA, CA 94501", "doing_business_as": "BLUE DOT CAFE AND COFFEE BAR", "grade": "g", "inspection_date": "2017-06-12", "violation_description": "Impoundment"}, "type": "Feature"}, {"geometry": {"coordinates": [-122.125285, 37.669577], "type": "Point"}, "properties": {"address": "800 BOCKMAN RD SAN LORENZO, CA 94580", "doing_business_as": "BOHANNON MIDDLE SCHOOL", "grade": "g", "inspection_date": "2012-09-04", "violation_description": "Equipment/Utensils - approved installed clean g"}, "type": "Feature"}, {"geometry": {"coordinates": [-122.007176, 37.525891], "type": "Point"}, "properties": {"address": "5995 MOWRY AVE NEWARK, CA 94560", "doing_business_as": "BOMBAY GARDEN", "grade": "g", "inspection_date": "2015-10-20", "violation_description": "Nonfood-contact surfaces clean"}, "type": "Feature"}, {"geometry": {"coordinates": [-121.922852, 37.495863], "type": "Point"}, "properties": {"address": "46695 MISSION BLVD FREMONT, CA 94539", "doing_business_as": "BOP", "grade": "g", "inspection_date": "2016-10-13", "violation_description": "Nonfood-contact surfaces clean"}, "type": "Feature"}, {"geometry": {"coordinates": [-122.251934, 37.835146], "type": "Point"}, "properties": {"address": "5152 BROADWAY OAKLAND, CA 94618", "doing_business_as": "BOSTON MARKET #1297", "grade": "g", "inspection_date": "2015-03-30", "violation_description": "Hot and cold water available"}, "type": "Feature"}, {"geometry": {"coordinates": [-122.15246, 37.754031], "type": "Point"}, "properties": {"address": "3151 98TH AVE OAKLAND, CA 94605", "doing_business_as": "BOTTLENECK LIQUORS", "grade": "g", "inspection_date": "2016-02-24", "violation_description": "Permits Available"}, "type": "Feature"}, {"geometry": {"coordinates": [-122.276409, 37.797136], "type": "Point"}, "properties": {"address": "468 3RD ST OAKLAND, CA 94607", "doing_business_as": "BOXICHEF", "grade": "y", "inspection_date": "2018-04-04", "violation_description": "Thermometers provided and accurate"}, "type": "Feature"}, {"geometry": {"coordinates": [-122.250647, 37.837208], "type": "Point"}, "properties": {"address": "5300 BROADWAY AVE OAKLAND, CA 94618", "doing_business_as": "BROADWAY 76", "grade": "No Grade Recorded", "inspection_date": "2013-08-12", "violation_description": "Plumbing proper backflow devices"}, "type": "Feature"}, {"geometry": {"coordinates": [-121.971082, 37.522519], "type": "Point"}, "properties": {"address": "41200 BLACOW RD #D FREMONT, CA 94538", "doing_business_as": "BRONCO BILLY'S PIZZA PALACE", "grade": "g", "inspection_date": "2016-07-20", "violation_description": "Nonfood-contact surfaces clean"}, "type": "Feature"}, {"geometry": {"coordinates": [-122.262499, 37.836499], "type": "Point"}, "properties": {"address": "6419 TELEGRAPH AVE OAKLAND, CA 94609", "doing_business_as": "BRUNDO MEATS & DELI", "grade": "r", "inspection_date": "2018-04-23", "violation_description": "Food separated and protected"}, "type": "Feature"}, {"geometry": {"coordinates": [-122.284016, 37.844069], "type": "Point"}, "properties": {"address": "3301 SAN PABLO AVE OAKLAND, CA 94608", "doing_business_as": "B-SIDE BBQ", "grade": "g", "inspection_date": "2013-09-10", "violation_description": "Food separated and protected"}, "type": "Feature"}, {"geometry": {"coordinates": [-121.773968, 37.6802], "type": "Point"}, "properties": {"address": "1790 N FIRST ST LIVERMORE, CA 94550", "doing_business_as": "BUFFALO WILD WINGS", "grade": "g", "inspection_date": "2016-05-26", "violation_description": "Hot and cold water available"}, "type": "Feature"}, {"geometry": {"coordinates": [-122.224474, 37.793691], "type": "Point"}, "properties": {"address": "2370 GRANDE VISTA OAKLAND, CA 94601", "doing_business_as": "BUILDING BLOCKS", "grade": "g", "inspection_date": "2014-10-02", "violation_description": "Thermometers provided and accurate"}, "type": "Feature"}, {"geometry": {"coordinates": [-122.2432, 37.792374], "type": "Point"}, "properties": {"address": "1326 E 18TH ST OAKLAND, CA 94606", "doing_business_as": "BUN MAM SOC TRANG", "grade": "g", "inspection_date": "2014-12-04", "violation_description": "Proper cooling methods"}, "type": "Feature"}, {"geometry": {"coordinates": [-122.086765, 37.69415], "type": "Point"}, "properties": {"address": "2757 CASTRO VALLEY BLVD CASTRO VALLEY, CA 94546", "doing_business_as": "BURGER KING #977", "grade": "g", "inspection_date": "2018-05-23", "violation_description": "Hot and cold water available"}, "type": "Feature"}, {"geometry": {"coordinates": [-121.723543, 37.708505], "type": "Point"}, "properties": {"address": "128 S VASCO RD LIVERMORE, CA 94551", "doing_business_as": "C & A MINI MART & DELI", "grade": "g", "inspection_date": "2015-06-19", "violation_description": "Hot and cold water available"}, "type": "Feature"}, {"geometry": {"coordinates": [-122.269302, 37.813487], "type": "Point"}, "properties": {"address": "531 24TH ST OAKLAND, CA 94612", "doing_business_as": "C U R A", "grade": "g", "inspection_date": "2013-05-06", "violation_description": "Proper hot and cold holding temperatures"}, "type": "Feature"}, {"geometry": {"coordinates": [-121.982453, 37.529333], "type": "Point"}, "properties": {"address": "4949 STEVENSON BLVD #L FREMONT, CA 94538", "doing_business_as": "CABRILLO PARK CAFE", "grade": "g", "inspection_date": "2015-12-16", "violation_description": "Plumbing proper backflow devices"}, "type": "Feature"}, {"geometry": {"coordinates": [-122.11747, 37.664473], "type": "Point"}, "properties": {"address": "19450 HESPERIAN BLVD HAYWARD, CA 94541", "doing_business_as": "CAESAR'S CHICKEN", "grade": "g", "inspection_date": "2014-11-19", "violation_description": "Proper cooling methods"}, "type": "Feature"}, {"geometry": {"coordinates": [-122.204676, 37.797288], "type": "Point"}, "properties": {"address": "3016 MACARTHUR BLVD OAKLAND, CA 94602", "doing_business_as": "CAFE 3016", "grade": "g", "inspection_date": "2014-03-11", "violation_description": "Food obtained from approved source"}, "type": "Feature"}, {"geometry": {"coordinates": [-121.99101, 37.521438], "type": "Point"}, "properties": {"address": "39941 BALENTINE DR NEWARK, CA 94560", "doing_business_as": "CAFE GYROS", "grade": "y", "inspection_date": "2013-02-01", "violation_description": "Proper cooling methods"}, "type": "Feature"}, {"geometry": {"coordinates": [-122.276754, 37.773302], "type": "Point"}, "properties": {"address": "1500 WEBSTER ST ALAMEDA, CA 94501", "doing_business_as": "CAFE JOLIE", "grade": "g", "inspection_date": "2018-11-19", "violation_description": "Plan Review"}, "type": "Feature"}, {"geometry": {"coordinates": [-122.155156, 37.722852], "type": "Point"}, "properties": {"address": "1501 WASHINGTON AVE SAN LEANDRO, CA 94577", "doing_business_as": "CAFE SORRISO", "grade": "g", "inspection_date": "2012-11-27", "violation_description": "Nonfood-contact surfaces clean"}, "type": "Feature"}, {"geometry": {"coordinates": [-121.862612, 37.668954], "type": "Point"}, "properties": {"address": "3550 STANLEY BLVD 3 PLEASANTON, CA 94566", "doing_business_as": "CAFE TAIWAN", "grade": "g", "inspection_date": "2014-11-12", "violation_description": "Thermometers provided and accurate"}, "type": "Feature"}, {"geometry": {"coordinates": [-122.253616, 37.793953], "type": "Point"}, "properties": {"address": "649 E 12TH ST #A OAKLAND, CA 94606", "doing_business_as": "CAFE TV", "grade": "r", "inspection_date": "2016-11-17", "violation_description": "Permits Available"}, "type": "Feature"}, {"geometry": {"coordinates": [-122.245133, 37.818401], "type": "Point"}, "properties": {"address": "3917 GRAND AVE OAKLAND, CA 94610", "doing_business_as": "CAMINO RESTAURANT", "grade": "g", "inspection_date": "2018-10-23", "violation_description": "Food contact surfaces: clean and sanitized"}, "type": "Feature"}, {"geometry": {"coordinates": [-122.112997, 37.665972], "type": "Point"}, "properties": {"address": "692 W A ST HAYWARD, CA 94541", "doing_business_as": "CARMEN & FAMILY BBQ", "grade": "g", "inspection_date": "2018-09-11", "violation_description": "Food contact surfaces: clean and sanitized"}, "type": "Feature"}, {"geometry": {"coordinates": [-121.807032, 37.652809], "type": "Point"}, "properties": {"address": "410 VINEYARD AVE PLEASANTON, CA 94566", "doing_business_as": "CASA REAL", "grade": "g", "inspection_date": "2015-09-28", "violation_description": "No rodents, insects, birds, or animals"}, "type": "Feature"}, {"geometry": {"coordinates": [-121.98418, 37.527066], "type": "Point"}, "properties": {"address": "6092 STEVENSON BLVD FREMONT, CA 94538", "doing_business_as": "CASA RESTAURANT", "grade": "g", "inspection_date": "2018-05-16", "violation_description": "Impoundment"}, "type": "Feature"}, {"geometry": {"coordinates": [-122.199921, 37.792982], "type": "Point"}, "properties": {"address": "8601 MACARTHUR BLVD OAKLAND, CA 94601", "doing_business_as": "CASTLEMONT HIGH SCHOOL", "grade": "c", "inspection_date": "2016-06-10", "violation_description": "Food contact surfaces: clean and sanitized"}, "type": "Feature"}, {"geometry": {"coordinates": [-122.0763, 37.70509], "type": "Point"}, "properties": {"address": "19400 SANTA MARIA AVE CASTRO VALLEY, CA 94546", "doing_business_as": "CASTRO VALLEY HS ATHELETIC STADIUM", "grade": "No Grade Recorded", "inspection_date": "2013-04-25", "violation_description": "Nonfood-contact surfaces clean"}, "type": "Feature"}, {"geometry": {"coordinates": [-122.075447, 37.695544], "type": "Point"}, "properties": {"address": "3519 CASTRO VALLEY BLVD CASTRO VALLEY, CA 94546", "doing_business_as": "CASTRO VALLEY SHELL", "grade": "g", "inspection_date": "2013-06-19", "violation_description": "Permits Available"}, "type": "Feature"}, {"geometry": {"coordinates": [-122.086698, 37.696425], "type": "Point"}, "properties": {"address": "20388 LAKE CHABOT RD CASTRO VALLEY, CA 94546", "doing_business_as": "CHABOT LIQUORS", "grade": "g", "inspection_date": "2015-03-06", "violation_description": "Hot and cold water available"}, "type": "Feature"}, {"geometry": {"coordinates": [-121.920505, 37.476574], "type": "Point"}, "properties": {"address": "47894 WARM SPRINGS BLVD FREMONT, CA 94539", "doing_business_as": "CHEF CHAI", "grade": "g", "inspection_date": "2018-12-20", "violation_description": "Hot and cold water available"}, "type": "Feature"}, {"geometry": {"coordinates": [-122.102391, 37.666469], "type": "Point"}, "properties": {"address": "1169 W A ST HAYWARD, CA 94541", "doing_business_as": "CHEF MING EXPRESS", "grade": "g", "inspection_date": "2017-05-23", "violation_description": "Vending machines"}, "type": "Feature"}, {"geometry": {"coordinates": [-122.150841, 37.733762], "type": "Point"}, "properties": {"address": "600 DUTTON AVE A SAN LEANDRO, CA 94577", "doing_business_as": "CHEF MING", "grade": "g", "inspection_date": "2015-01-09", "violation_description": "Proper cooling methods"}, "type": "Feature"}, {"geometry": {"coordinates": [-122.276793, 37.777689], "type": "Point"}, "properties": {"address": "1821 WEBSTER ST ALAMEDA, CA 94501", "doing_business_as": "CHEF'S WOK", "grade": "y", "inspection_date": "2019-06-24", "violation_description": "Signs posted last inspection report available"}, "type": "Feature"}, {"geometry": {"coordinates": [-121.952909, 37.515017], "type": "Point"}, "properties": {"address": "39206 FREMONT BLVD FREMONT, CA 94538", "doing_business_as": "CHERRY GARDEN RESTAURANT", "grade": "y", "inspection_date": "2013-06-06", "violation_description": "Proper cooling methods"}, "type": "Feature"}, {"geometry": {"coordinates": [-122.161278, 37.723817], "type": "Point"}, "properties": {"address": "589 DAVIS ST SAN LEANDRO, CA 94577", "doing_business_as": "CHEVRON XTRA OIL COMPANY", "grade": "g", "inspection_date": "2012-08-20", "violation_description": "Nonfood-contact surfaces clean"}, "type": "Feature"}, {"geometry": {"coordinates": [-122.285753, 37.84994], "type": "Point"}, "properties": {"address": "6706 SAN PABLO AVE OAKLAND, CA 94608", "doing_business_as": "CHILES JALAPENOS", "grade": "g", "inspection_date": "2013-10-25", "violation_description": "Signs posted last inspection report available"}, "type": "Feature"}, {"geometry": {"coordinates": [-122.256684, 37.827904], "type": "Point"}, "properties": {"address": "4021 BROADWAY OAKLAND, CA 94611", "doing_business_as": "CHINA HUT", "grade": "r", "inspection_date": "2014-05-24", "violation_description": "Food separated and protected"}, "type": "Feature"}, {"geometry": {"coordinates": [-122.130751, 37.706732], "type": "Point"}, "properties": {"address": "13780 E 14TH ST SAN LEANDRO, CA 94578", "doing_business_as": "CHINA KITCHEN EXPRESS", "grade": "y", "inspection_date": "2015-10-13", "violation_description": "Impoundment"}, "type": "Feature"}, {"geometry": {"coordinates": [-121.724361, 37.717893], "type": "Point"}, "properties": {"address": "1460 N VASCO RD LIVERMORE, CA 94550", "doing_business_as": "CHINA PAVILION RESTAURANT", "grade": "g", "inspection_date": "2013-01-10", "violation_description": "Nonfood-contact surfaces clean"}, "type": "Feature"}, {"geometry": {"coordinates": [-122.272475, 37.799584], "type": "Point"}, "properties": {"address": "399 8TH ST OAKLAND, CA 94607", "doing_business_as": "CHINA STAR EXPRESS", "grade": "No Grade Recorded", "inspection_date": "2012-06-29", "violation_description": "Hot and cold water available"}, "type": "Feature"}, {"geometry": {"coordinates": [-121.981702, 37.554374], "type": "Point"}, "properties": {"address": "2760 MOWRY AVE FREMONT, CA 94538", "doing_business_as": "CHIPOTLE MEXICAN GRILL", "grade": "g", "inspection_date": "2014-09-17", "violation_description": "Hot and cold water available"}, "type": "Feature"}, {"geometry": {"coordinates": [-122.251488, 37.838086], "type": "Point"}, "properties": {"address": "5295 COLLEGE AVE #A OAKLAND, CA 94618", "doing_business_as": "CHRISTOPHER'S BURGERS", "grade": "g", "inspection_date": "2016-10-31", "violation_description": "Plumbing proper backflow devices"}, "type": "Feature"}, {"geometry": {"coordinates": [-121.999554, 37.534925], "type": "Point"}, "properties": {"address": "5144 MOWRY AVE FREMONT, CA 94538", "doing_business_as": "TASTE OF INDIA", "grade": "g", "inspection_date": "2015-12-01", "violation_description": "Signs posted last inspection report available"}, "type": "Feature"}, {"geometry": {"coordinates": [-122.191362, 37.770866], "type": "Point"}, "properties": {"address": "7301 BANCROFT AVE OAKLAND, CA 94621", "doing_business_as": "CHURCH'S CHICKEN", "grade": "g", "inspection_date": "2015-04-16", "violation_description": "Permits Available"}, "type": "Feature"}, {"geometry": {"coordinates": [-121.995909, 37.539533], "type": "Point"}, "properties": {"address": "3352 MOWRY AVE FREMONT, CA 94538", "doing_business_as": "CHUTNEY RESTAURANT", "grade": "g", "inspection_date": "2016-05-23", "violation_description": "Food contact surfaces: clean and sanitized"}, "type": "Feature"}, {"geometry": {"coordinates": [-122.074035, 37.702693], "type": "Point"}, "properties": {"address": "20925 REDWOOD RD CASTRO VALLEY, CA 94546", "doing_business_as": "TACO BELL #554", "grade": "g", "inspection_date": "2012-12-19", "violation_description": "Plumbing proper backflow devices"}, "type": "Feature"}, {"geometry": {"coordinates": [-122.070798, 37.650493], "type": "Point"}, "properties": {"address": "414 W HARDER RD HAYWARD, CA 94544", "doing_business_as": "CIGARETTES OUTLET SMOKE SHOP", "grade": "g", "inspection_date": "2018-07-31", "violation_description": "Nonfood-contact surfaces clean"}, "type": "Feature"}, {"geometry": {"coordinates": [-122.243943, 37.764827], "type": "Point"}, "properties": {"address": "2301 CENTRAL AVE ALAMEDA, CA 94501", "doing_business_as": "CINEMA GRILL", "grade": "g", "inspection_date": "2015-05-19", "violation_description": "Signs posted last inspection report available"}, "type": "Feature"}, {"geometry": {"coordinates": [-121.96158, 37.542483], "type": "Point"}, "properties": {"address": "39707 PASEO PADRE PKWY FREMONT, CA 94538", "doing_business_as": "CIVIC CENTER CHEVRON", "grade": "g", "inspection_date": "2016-06-21", "violation_description": "Nonfood-contact surfaces clean"}, "type": "Feature"}, {"geometry": {"coordinates": [-122.285345, 37.799551], "type": "Point"}, "properties": {"address": "101 MYRTLE ST OAKLAND, CA 94607", "doing_business_as": "CIVICORPS ACADEMY", "grade": "y", "inspection_date": "2014-09-29", "violation_description": "Thermometers provided and accurate"}, "type": "Feature"}, {"geometry": {"coordinates": [-121.767285, 37.682952], "type": "Point"}, "properties": {"address": "2417 FIRST ST LIVERMORE, CA 94550", "doing_business_as": "CLAY OVEN RESTAURANT AND BAR", "grade": "r", "inspection_date": "2019-08-01", "violation_description": "Permit Suspension"}, "type": "Feature"}, {"geometry": {"coordinates": [-122.153972, 37.72141], "type": "Point"}, "properties": {"address": "1680 WASHINGTON AVE SAN LEANDRO, CA 94577", "doing_business_as": "CLIMAX SPORTS BAR", "grade": "g", "inspection_date": "2016-05-04", "violation_description": "Nonfood-contact surfaces clean"}, "type": "Feature"}, {"geometry": {"coordinates": [-121.906791, 37.693485], "type": "Point"}, "properties": {"address": "4900 JOHNSON DR PLEASANTON, CA 94588", "doing_business_as": "CLOROX", "grade": "g", "inspection_date": "2017-12-19", "violation_description": "Impoundment"}, "type": "Feature"}, {"geometry": {"coordinates": [-122.299438, 37.892199], "type": "Point"}, "properties": {"address": "752 SAN PABLO AVE ALBANY, CA 94706", "doing_business_as": "CLUB MALLARD", "grade": "g", "inspection_date": "2014-08-18", "violation_description": "Food contact surfaces: clean and sanitized"}, "type": "Feature"}, {"geometry": {"coordinates": [-121.998581, 37.536131], "type": "Point"}, "properties": {"address": "5010 MOWRY AVE FREMONT, CA 94538", "doing_business_as": "COCO CHICKEN", "grade": "g", "inspection_date": "2016-09-27", "violation_description": "Hot and cold water available"}, "type": "Feature"}, {"geometry": {"coordinates": [-121.931857, 37.493737], "type": "Point"}, "properties": {"address": "46121 WARM SPRINGS BLVD FREMONT, CA 94539", "doing_business_as": "COCONUT HILL WAREHOUSE", "grade": "g", "inspection_date": "2018-07-17", "violation_description": "Hot and cold water available"}, "type": "Feature"}, {"geometry": {"coordinates": [-121.773108, 37.697771], "type": "Point"}, "properties": {"address": "2252 LAS POSITAS LIVERMORE, CA 94551", "doing_business_as": "COLD STONE CREAMERY #375", "grade": "g", "inspection_date": "2017-01-27", "violation_description": "Nonfood-contact surfaces clean"}, "type": "Feature"}, {"geometry": {"coordinates": [-122.252825, 37.850214], "type": "Point"}, "properties": {"address": "307 63RD ST OAKLAND, CA 94618", "doing_business_as": "COLE COFFEE", "grade": "g", "inspection_date": "2017-02-17", "violation_description": "Hot and cold water available"}, "type": "Feature"}, {"geometry": {"coordinates": [-122.199878, 37.765278], "type": "Point"}, "properties": {"address": "8999 INTERNATIONAL BLVD OAKLAND, CA 94621", "doing_business_as": "COLISEUM PIZZA", "grade": "y", "inspection_date": "2017-05-04", "violation_description": "Food contact surfaces: clean and sanitized"}, "type": "Feature"}, {"geometry": {"coordinates": [-122.202932, 37.750273], "type": "Point"}, "properties": {"address": "7000 COLISEUM WAY OAKLAND, CA 94621", "doing_business_as": "COLISEUM WEST #111", "grade": "g", "inspection_date": "2017-08-16", "violation_description": "Hot and cold water available"}, "type": "Feature"}, {"geometry": {"coordinates": [-122.202932, 37.750273], "type": "Point"}, "properties": {"address": "7000 COLISEUM WAY OAKLAND, CA 94621", "doing_business_as": "COLISEUM WEST CLUB BAR", "grade": "y", "inspection_date": "2015-01-24", "violation_description": "Impoundment"}, "type": "Feature"}, {"geometry": {"coordinates": [-122.202932, 37.750273], "type": "Point"}, "properties": {"address": "7000 COLISEUM WAY OAKLAND, CA 94621", "doing_business_as": "COLISEUM WEST V3", "grade": "g", "inspection_date": "2014-12-22", "violation_description": "Impoundment"}, "type": "Feature"}, {"geometry": {"coordinates": [-122.268731, 37.805643], "type": "Point"}, "properties": {"address": "1632 FRANKLIN ST OAKLAND, CA 94612", "doing_business_as": "COLONIAL DONUTS", "grade": "g", "inspection_date": "2013-08-06", "violation_description": "Signs posted last inspection report available"}, "type": "Feature"}, {"geometry": {"coordinates": [-122.283328, 37.80272], "type": "Point"}, "properties": {"address": "1498 7TH ST #B OAKLAND, CA 94607", "doing_business_as": "COMALAPA RESTAURANT", "grade": "y", "inspection_date": "2012-11-05", "violation_description": "Proper cooling methods"}, "type": "Feature"}, {"geometry": {"coordinates": [-122.194838, 37.74086], "type": "Point"}, "properties": {"address": "8452 EDES AVE OAKLAND, CA 94621", "doing_business_as": "COMFORT INN", "grade": "g", "inspection_date": "2014-05-02", "violation_description": "Impoundment"}, "type": "Feature"}, {"geometry": {"coordinates": [-122.196282, 37.788615], "type": "Point"}, "properties": {"address": "4171 MACARTHUR BLVD OAKLAND, CA 94619", "doing_business_as": "COMMUNITE TABLE", "grade": "g", "inspection_date": "2017-04-05", "violation_description": "No rodents, insects, birds, or animals"}, "type": "Feature"}, {"geometry": {"coordinates": [-122.292438, 37.835138], "type": "Point"}, "properties": {"address": "5645 BAY ST EMERYVILLE, CA 94608", "doing_business_as": "CORNOLOGY", "grade": "No Grade Recorded", "inspection_date": "2014-01-21", "violation_description": "Hot and cold water available"}, "type": "Feature"}, {"geometry": {"coordinates": [-122.023704, 37.540784], "type": "Point"}, "properties": {"address": "39193 CEDAR BLVD NEWARK, CA 94560", "doing_business_as": "COUSIN CAFE", "grade": "y", "inspection_date": "2013-10-28", "violation_description": "Nonfood-contact surfaces clean"}, "type": "Feature"}, {"geometry": {"coordinates": [-122.283517, 37.801417], "type": "Point"}, "properties": {"address": "2630 5TH ST #A ALAMEDA, CA 94501", "doing_business_as": "CREAM", "grade": "g", "inspection_date": "2017-10-17", "violation_description": "Nonfood-contact surfaces clean"}, "type": "Feature"}, {"geometry": {"coordinates": [-122.162878, 37.711826], "type": "Point"}, "properties": {"address": "1209 MARINA BLVD SAN LEANDRO, CA 94579", "doing_business_as": "STARBUCKS #5545", "grade": "g", "inspection_date": "2018-03-30", "violation_description": "Plumbing proper backflow devices"}, "type": "Feature"}, {"geometry": {"coordinates": [-122.251048, 37.827019], "type": "Point"}, "properties": {"address": "4184 PIEDMONT AVE E OAKLAND, CA 94611", "doing_business_as": "CREPEVINE RESTAURANT", "grade": "g", "inspection_date": "2018-05-23", "violation_description": "Proper hot and cold holding temperatures"}, "type": "Feature"}, {"geometry": {"coordinates": [-122.27679, 37.77157], "type": "Point"}, "properties": {"address": "705 CENTRAL AVE ALAMEDA, CA 94501", "doing_business_as": "CROLL'S PIZZA", "grade": "g", "inspection_date": "2014-04-17", "violation_description": "Nonfood-contact surfaces clean"}, "type": "Feature"}, {"geometry": {"coordinates": [-122.057925, 37.596636], "type": "Point"}, "properties": {"address": "32083 ALVARADO NILES RD UNION CITY, CA 94587", "doing_business_as": "CROWNE PLAZA", "grade": "y", "inspection_date": "2018-08-15", "violation_description": "Proper cooling methods"}, "type": "Feature"}, {"geometry": {"coordinates": [-121.927609, 37.492133], "type": "Point"}, "properties": {"address": "46445 MISSION BLVD FREMONT, CA 94539", "doing_business_as": "CVS PHARMACY # 9234", "grade": "g", "inspection_date": "2014-11-07", "violation_description": "Nonfood-contact surfaces clean"}, "type": "Feature"}, {"geometry": {"coordinates": [-122.152848, 37.723528], "type": "Point"}, "properties": {"address": "1550 E 14TH ST SAN LEANDRO, CA 94577", "doing_business_as": "CVS/PHARMACY #9635", "grade": "g", "inspection_date": "2019-02-04", "violation_description": "Nonfood-contact surfaces clean"}, "type": "Feature"}, {"geometry": {"coordinates": [-122.272013, 37.799589], "type": "Point"}, "properties": {"address": "378 8TH ST #A OAKLAND, CA 94607", "doing_business_as": "D & K MARKET INC", "grade": "y", "inspection_date": "2013-03-04", "violation_description": "Plan Review"}, "type": "Feature"}, {"geometry": {"coordinates": [-121.746868, 37.680045], "type": "Point"}, "properties": {"address": "4086 EAST AVE LIVERMORE, CA 94550", "doing_business_as": "DANDY DOGS", "grade": "g", "inspection_date": "2012-07-26", "violation_description": "Thermometers provided and accurate"}, "type": "Feature"}, {"geometry": {"coordinates": [-122.276777, 37.771456], "type": "Point"}, "properties": {"address": "1401 WEBSTER ST ALAMEDA, CA 94501", "doing_business_as": "DAVE'S LIQUORS", "grade": "g", "inspection_date": "2013-08-08", "violation_description": "Food separated and protected"}, "type": "Feature"}, {"geometry": {"coordinates": [-122.076854, 37.631467], "type": "Point"}, "properties": {"address": "1163 W TENNYSON RD HAYWARD, CA 94544", "doing_business_as": "DD'S DISCOUNTS", "grade": "g", "inspection_date": "2018-07-19", "violation_description": "Nonfood-contact surfaces clean"}, "type": "Feature"}, {"geometry": {"coordinates": [-121.874838, 37.661933], "type": "Point"}, "properties": {"address": "620 MAIN ST PLEASANTON, CA 94566", "doing_business_as": "DEAN'S CAFE", "grade": "g", "inspection_date": "2013-06-11", "violation_description": "Nonfood-contact surfaces clean"}, "type": "Feature"}, {"geometry": {"coordinates": [-121.768334, 37.681599], "type": "Point"}, "properties": {"address": "2235 FIRST ST LIVERMORE, CA 94550", "doing_business_as": "DEMITRIS KAPLANIS", "grade": "g", "inspection_date": "2017-04-18", "violation_description": "Nonfood-contact surfaces clean"}, "type": "Feature"}, {"geometry": {"coordinates": [-121.724353, 37.718196], "type": "Point"}, "properties": {"address": "1524 N VASCO RD LIVERMORE, CA 94551", "doing_business_as": "DICKEY'S BARBECUE PIT", "grade": "g", "inspection_date": "2016-12-16", "violation_description": "Nonfood-contact surfaces clean"}, "type": "Feature"}, {"geometry": {"coordinates": [-122.2162, 37.799804], "type": "Point"}, "properties": {"address": "3430 FRUITVALE AVE OAKLAND, CA 94602", "doing_business_as": "DIMOND CAFE", "grade": "g", "inspection_date": "2015-12-31", "violation_description": "Proper hot and cold holding temperatures"}, "type": "Feature"}, {"geometry": {"coordinates": [-121.978625, 37.550939], "type": "Point"}, "properties": {"address": "3213 WALNUT AVE FREMONT, CA 94538", "doing_business_as": "DIN DING DUMPLING HOUSE", "grade": "No Grade Recorded", "inspection_date": "2017-04-03", "violation_description": "Plan Review"}, "type": "Feature"}, {"geometry": {"coordinates": [-122.257471, 37.843095], "type": "Point"}, "properties": {"address": "6200 CLAREMONT AVE OAKLAND, CA 94618", "doing_business_as": "DING JAPANESE FOOD", "grade": "r", "inspection_date": "2018-07-24", "violation_description": "No rodents, insects, birds, or animals"}, "type": "Feature"}, {"geometry": {"coordinates": [-122.244531, 37.761986], "type": "Point"}, "properties": {"address": "1260 PARK ST ALAMEDA, CA 94501", "doing_business_as": "DK-ARCO", "grade": "g", "inspection_date": "2017-12-19", "violation_description": "Plumbing proper backflow devices"}, "type": "Feature"}, {"geometry": {"coordinates": [-122.23919, 37.77144], "type": "Point"}, "properties": {"address": "2317 BLANDING AVE A ALAMEDA, CA 94501", "doing_business_as": "Dollar Tree #05672", "grade": "g", "inspection_date": "2017-11-29", "violation_description": "Food storage food storage containers identified"}, "type": "Feature"}, {"geometry": {"coordinates": [-122.151029, 37.721606], "type": "Point"}, "properties": {"address": "1768 E 14TH ST SAN LEANDRO, CA 94577", "doing_business_as": "DOMINO'S PIZZA", "grade": "g", "inspection_date": "2012-10-17", "violation_description": "Nonfood-contact surfaces clean"}, "type": "Feature"}, {"geometry": {"coordinates": [-122.029136, 37.536192], "type": "Point"}, "properties": {"address": "35248 NEWARK BLVD NEWARK, CA 94560", "doing_business_as": "DOMINO'S PIZZA", "grade": "g", "inspection_date": "2012-07-03", "violation_description": "Impoundment"}, "type": "Feature"}, {"geometry": {"coordinates": [-121.76546, 37.684202], "type": "Point"}, "properties": {"address": "2566 OLD FIRST ST LIVERMORE, CA 94550", "doing_business_as": "DOMINO'S", "grade": "g", "inspection_date": "2019-06-25", "violation_description": "Plan Review"}, "type": "Feature"}, {"geometry": {"coordinates": [-122.065716, 37.633183], "type": "Point"}, "properties": {"address": "364 W TENNYSON RD HAYWARD, CA 94544", "doing_business_as": "DON GASPACHO", "grade": "g", "inspection_date": "2018-01-29", "violation_description": "Wiping cloths: properly used and stored"}, "type": "Feature"}, {"geometry": {"coordinates": [-122.076922, 37.696705], "type": "Point"}, "properties": {"address": "3430 VILLAGE DR CASTRO VALLEY, CA 94546", "doing_business_as": "DON JOSE'S RESTAURANT", "grade": "g", "inspection_date": "2016-12-08", "violation_description": "Nonfood-contact surfaces clean"}, "type": "Feature"}, {"geometry": {"coordinates": [-122.06845, 37.632137], "type": "Point"}, "properties": {"address": "669 W TENNYSON RD HAYWARD, CA 94544", "doing_business_as": "DON POLVORON", "grade": "g", "inspection_date": "2016-02-01", "violation_description": "Nonfood-contact surfaces clean"}, "type": "Feature"}, {"geometry": {"coordinates": [-122.06845, 37.632137], "type": "Point"}, "properties": {"address": "669 W TENNYSON RD HAYWARD, CA 94544", "doing_business_as": "DON POLVORON", "grade": "g", "inspection_date": "2012-07-13", "violation_description": "Nonfood-contact surfaces clean"}, "type": "Feature"}, {"geometry": {"coordinates": [-121.906961, 37.684622], "type": "Point"}, "properties": {"address": "4150 DORMAN PLEASANTON, CA 94588", "doing_business_as": "DONLAN ELEMENTARY SCHOOL", "grade": "No Grade Recorded", "inspection_date": "2018-05-22", "violation_description": "Garbage and refuse properly disposed facilities m"}, "type": "Feature"}, {"geometry": {"coordinates": [-121.750481, 37.678346], "type": "Point"}, "properties": {"address": "3951 EAST AVE LIVERMORE, CA 94550", "doing_business_as": "EAST AVENUE SCHOOL CAFE", "grade": "g", "inspection_date": "2015-03-24", "violation_description": "No rodents, insects, birds, or animals"}, "type": "Feature"}, {"geometry": {"coordinates": [-122.199878, 37.765278], "type": "Point"}, "properties": {"address": "8432 INTERNATIONAL BLVD OAKLAND, CA 94621", "doing_business_as": "EAST BAY MARKET", "grade": "g", "inspection_date": "2018-10-31", "violation_description": "Plan Review"}, "type": "Feature"}, {"geometry": {"coordinates": [-122.182428, 37.762469], "type": "Point"}, "properties": {"address": "1935 73RD AVE OAKLAND, CA 94602", "doing_business_as": "EDDIE'S MARKET", "grade": "g", "inspection_date": "2013-08-20", "violation_description": "Nonfood-contact surfaces clean"}, "type": "Feature"}, {"geometry": {"coordinates": [-122.107187, 37.63804], "type": "Point"}, "properties": {"address": "2184 THAYER AVE HAYWARD, CA 94545", "doing_business_as": "EDEN GARDENS ELEM SCHOOL", "grade": "g", "inspection_date": "2017-03-15", "violation_description": "Nonfood-contact surfaces clean"}, "type": "Feature"}, {"geometry": {"coordinates": [-122.134796, 37.693206], "type": "Point"}, "properties": {"address": "400 SPRINGLAKE DR SAN LEANDRO, CA 94578", "doing_business_as": "EDEN LODGE", "grade": "g", "inspection_date": "2013-05-29", "violation_description": "Plumbing proper backflow devices"}, "type": "Feature"}, {"geometry": {"coordinates": [-122.12092, 37.624731], "type": "Point"}, "properties": {"address": "3541 INVESTMENT BLVD 1 HAYWARD, CA 94545", "doing_business_as": "EDEN PLAZA", "grade": "g", "inspection_date": "2014-06-04", "violation_description": "Proper hot and cold holding temperatures"}, "type": "Feature"}, {"geometry": {"coordinates": [-122.122949, 37.686795], "type": "Point"}, "properties": {"address": "5 E LEWELLING BLVD SAN LORENZO, CA 94580", "doing_business_as": "EL MEZCAL, INC.", "grade": "g", "inspection_date": "2018-04-10", "violation_description": "Proper cooling methods"}, "type": "Feature"}, {"geometry": {"coordinates": [-121.851232, 37.705617], "type": "Point"}, "properties": {"address": "3898 FALLON RD DUBLIN, CA 94568", "doing_business_as": "EL POLLO LOCO #6138", "grade": "g", "inspection_date": "2016-08-10", "violation_description": "Floors, walls and ceilings: built, maintained, and"}, "type": "Feature"}, {"geometry": {"coordinates": [-122.235033, 37.772769], "type": "Point"}, "properties": {"address": "400 29TH AVE OAKLAND, CA 94601", "doing_business_as": "EL POTRILLO RESTAURANT & BAR", "grade": "g", "inspection_date": "2016-06-16", "violation_description": "Proper cooling methods"}, "type": "Feature"}, {"geometry": {"coordinates": [-122.074035, 37.702693], "type": "Point"}, "properties": {"address": "22291 REDWOOD RD CASTRO VALLEY, CA 94546", "doing_business_as": "EL RANCHO SUPERMERCADO TAQUERIA", "grade": "g", "inspection_date": "2018-05-15", "violation_description": "Nonfood-contact surfaces clean"}, "type": "Feature"}, {"geometry": {"coordinates": [-122.070545, 37.589147], "type": "Point"}, "properties": {"address": "4123 DYER ST UNION CITY, CA 94587", "doing_business_as": "ELITE BAKERY", "grade": "g", "inspection_date": "2017-03-28", "violation_description": "No rodents, insects, birds, or animals"}, "type": "Feature"}, {"geometry": {"coordinates": [-122.268056, 37.803043], "type": "Point"}, "properties": {"address": "329 14TH ST OAKLAND, CA 94612", "doing_business_as": "EM DELI & CATERING", "grade": "y", "inspection_date": "2014-06-19", "violation_description": "Plan Review"}, "type": "Feature"}, {"geometry": {"coordinates": [-122.210125, 37.826603], "type": "Point"}, "properties": {"address": "6119 LA SALLE AVE OAKLAND, CA 94611", "doing_business_as": "EM DELI & CATERING", "grade": "y", "inspection_date": "2019-02-20", "violation_description": "Nonfood-contact surfaces clean"}, "type": "Feature"}, {"geometry": {"coordinates": [-121.796449, 37.665932], "type": "Point"}, "properties": {"address": "391 ONTARIO DR LIVERMORE, CA 94550", "doing_business_as": "EMMA C SMITH ELEMENTARY SCHOOL", "grade": "g", "inspection_date": "2017-04-25", "violation_description": "Consumer self service"}, "type": "Feature"}, {"geometry": {"coordinates": [-122.130751, 37.706732], "type": "Point"}, "properties": {"address": "13775 E 14TH ST SAN LEANDRO, CA 94578", "doing_business_as": "ERNIE'S SEAFOOD", "grade": "g", "inspection_date": "2018-03-23", "violation_description": "Impoundment"}, "type": "Feature"}, {"geometry": {"coordinates": [-122.07388, 37.69485], "type": "Point"}, "properties": {"address": "20912 REDWOOD RD #A CASTRO VALLEY, CA 94546", "doing_business_as": "EUROPEAN MARKET, DELI & CAFE", "grade": "g", "inspection_date": "2017-02-10", "violation_description": "Food separated and protected"}, "type": "Feature"}, {"geometry": {"coordinates": [-122.295201, 37.810158], "type": "Point"}, "properties": {"address": "1600 12TH ST OAKLAND, CA 94607", "doing_business_as": "FAMILY SUPERMARKET", "grade": "g", "inspection_date": "2017-09-27", "violation_description": "Nonfood-contact surfaces clean"}, "type": "Feature"}, {"geometry": {"coordinates": [-122.21679, 37.798501], "type": "Point"}, "properties": {"address": "3420 FRUITVALE AVE OAKLAND, CA 94602", "doing_business_as": "FARMER JOE'S MARKETPLACE", "grade": "No Grade Recorded", "inspection_date": "2012-06-14", "violation_description": "Nonfood-contact surfaces clean"}, "type": "Feature"}, {"geometry": {"coordinates": [-122.223966, 37.777548], "type": "Point"}, "properties": {"address": "3313 FARNAM ST OAKLAND, CA 94601", "doing_business_as": "FARNAM SNACK", "grade": "g", "inspection_date": "2014-12-08", "violation_description": "Nonfood-contact surfaces clean"}, "type": "Feature"}, {"geometry": {"coordinates": [-122.133915, 37.708963], "type": "Point"}, "properties": {"address": "14701 E 14TH ST SAN LEANDRO, CA 94578", "doing_business_as": "FAT FISH", "grade": "r", "inspection_date": "2018-02-09", "violation_description": "No rodents, insects, birds, or animals"}, "type": "Feature"}, {"geometry": {"coordinates": [-122.133915, 37.708963], "type": "Point"}, "properties": {"address": "14701 E 14TH ST SAN LEANDRO, CA 94578", "doing_business_as": "FAT FISH", "grade": "y", "inspection_date": "2012-09-12", "violation_description": "Food separated and protected"}, "type": "Feature"}, {"geometry": {"coordinates": [-122.273125, 37.802736], "type": "Point"}, "properties": {"address": "1111 BROADWAY OAKLAND, CA 94607", "doing_business_as": "FAZ RESTAURANT AND BAR", "grade": "y", "inspection_date": "2012-12-13", "violation_description": "Nonfood-contact surfaces clean"}, "type": "Feature"}, {"geometry": {"coordinates": [-122.004445, 37.556953], "type": "Point"}, "properties": {"address": "36974 FREMONT BLVD FREMONT, CA 94536", "doing_business_as": "FD GAS", "grade": "g", "inspection_date": "2016-11-09", "violation_description": "Nonfood-contact surfaces clean"}, "type": "Feature"}, {"geometry": {"coordinates": [-122.038872, 37.529718], "type": "Point"}, "properties": {"address": "7372 THORNTON AVE NEWARK, CA 94560", "doing_business_as": "FENG CHA TEAHOUSE", "grade": "g", "inspection_date": "2019-02-06", "violation_description": "Plan Review"}, "type": "Feature"}, {"geometry": {"coordinates": [-122.195909, 37.763572], "type": "Point"}, "properties": {"address": "6432 INTERNATIONAL BLVD OAKLAND, CA 94621", "doing_business_as": "FIESTAS PIZZA", "grade": "g", "inspection_date": "2019-04-04", "violation_description": "Permits Available"}, "type": "Feature"}, {"geometry": {"coordinates": [-122.161394, 37.723764], "type": "Point"}, "properties": {"address": "898 SAN LEANDRO BLVD SAN LEANDRO, CA 94577", "doing_business_as": "FIFTH WHEEL CAFE", "grade": "g", "inspection_date": "2013-07-15", "violation_description": "Proper cooling methods"}, "type": "Feature"}, {"geometry": {"coordinates": [-122.063442, 37.646696], "type": "Point"}, "properties": {"address": "26661 MISSION BLVD HAYWARD, CA 94544", "doing_business_as": "FIJI SWEETS AND SNACKS", "grade": "g", "inspection_date": "2012-08-08", "violation_description": "Nonfood-contact surfaces clean"}, "type": "Feature"}, {"geometry": {"coordinates": [-122.244917, 37.76152], "type": "Point"}, "properties": {"address": "1231 PARK ST ALAMEDA, CA 94501", "doing_business_as": "FIRE DEN/MAMA ROSE'S RECIPES", "grade": "y", "inspection_date": "2015-05-07", "violation_description": "Nonfood-contact surfaces clean"}, "type": "Feature"}, {"geometry": {"coordinates": [-121.770005, 37.681471], "type": "Point"}, "properties": {"address": "2106 FIRST ST LIVERMORE, CA 94550", "doing_business_as": "FIRST STREET ALEHOUSE", "grade": "g", "inspection_date": "2016-11-15", "violation_description": "Nonfood-contact surfaces clean"}, "type": "Feature"}, {"geometry": {"coordinates": [-121.770005, 37.681471], "type": "Point"}, "properties": {"address": "2106 FIRST ST LIVERMORE, CA 94550", "doing_business_as": "FIRST STREET ALEHOUSE", "grade": "g", "inspection_date": "2019-08-21", "violation_description": "Impoundment"}, "type": "Feature"}, {"geometry": {"coordinates": [-122.019915, 37.586382], "type": "Point"}, "properties": {"address": "34579 ALVARADO NILES RD UNION CITY, CA 94587", "doing_business_as": "FIVE RIVERS", "grade": "g", "inspection_date": "2019-06-04", "violation_description": "No rodents, insects, birds, or animals"}, "type": "Feature"}, {"geometry": {"coordinates": [-122.232992, 37.804592], "type": "Point"}, "properties": {"address": "2900 PARK BLVD OAKLAND, CA 94610", "doing_business_as": "FOOD 24-HR CONVENIENCE", "grade": "g", "inspection_date": "2012-12-03", "violation_description": "Permits Available"}, "type": "Feature"}, {"geometry": {"coordinates": [-122.063849, 37.614049], "type": "Point"}, "properties": {"address": "1681 DELTA CT HAYWARD, CA 94544", "doing_business_as": "FOOD DEPOT #3", "grade": "g", "inspection_date": "2018-06-26", "violation_description": "No rodents, insects, birds, or animals"}, "type": "Feature"}, {"geometry": {"coordinates": [-121.982668, 37.544047], "type": "Point"}, "properties": {"address": "39441 FREMONT BLVD FREMONT, CA 94536", "doing_business_as": "FOOD MAXX #409", "grade": "g", "inspection_date": "2018-12-20", "violation_description": "Washing fruits and vegetables"}, "type": "Feature"}, {"geometry": {"coordinates": [-122.199526, 37.72717], "type": "Point"}, "properties": {"address": "1065 98TH AVE OAKLAND, CA 94603", "doing_business_as": "FOUR BELLS MARKET & LIQUORS", "grade": "No Grade Recorded", "inspection_date": "2014-04-07", "violation_description": "Thermometers provided and accurate"}, "type": "Feature"}, {"geometry": {"coordinates": [-121.930253, 37.708836], "type": "Point"}, "properties": {"address": "7281 AMADOR PLAZA RD DUBLIN, CA 94568", "doing_business_as": "FREE BIRDS WORLD BURRITO", "grade": "y", "inspection_date": "2015-06-22", "violation_description": "Hot and cold water available"}, "type": "Feature"}, {"geometry": {"coordinates": [-121.965313, 37.513412], "type": "Point"}, "properties": {"address": "43250 GRIMMER BLVD FREMONT, CA 94538", "doing_business_as": "FREMONT GAS & FOOD", "grade": "y", "inspection_date": "2018-08-03", "violation_description": "Impoundment"}, "type": "Feature"}, {"geometry": {"coordinates": [-121.946352, 37.489059], "type": "Point"}, "properties": {"address": "46100 LANDING PKWY FREMONT, CA 94538", "doing_business_as": "FREMONT MARRIOTT", "grade": "g", "inspection_date": "2015-10-13", "violation_description": "Food separated and protected"}, "type": "Feature"}, {"geometry": {"coordinates": [-122.275907, 37.773308], "type": "Point"}, "properties": {"address": "2321 SANTA CLARA AVE ALAMEDA, CA 94501", "doing_business_as": "FRUITTI YOGI", "grade": "No Grade Recorded", "inspection_date": "2012-05-02", "violation_description": "Nonfood-contact surfaces clean"}, "type": "Feature"}, {"geometry": {"coordinates": [-122.284842, 37.816796], "type": "Point"}, "properties": {"address": "2311 MAGNOLIA ST OAKLAND, CA 94607", "doing_business_as": "FUSE BOX", "grade": "g", "inspection_date": "2013-03-06", "violation_description": "Food separated and protected"}, "type": "Feature"}, {"geometry": {"coordinates": [-121.935152, 37.707281], "type": "Point"}, "properties": {"address": "7821 AMADOR VALLEY BLVD DUBLIN, CA 94568", "doing_business_as": "GALLAGHER'S DUBLIN PUB", "grade": "g", "inspection_date": "2012-10-08", "violation_description": "Nonfood-contact surfaces clean"}, "type": "Feature"}, {"geometry": {"coordinates": [-121.987667, 37.549445], "type": "Point"}, "properties": {"address": "3846 MOWRY AVE FREMONT, CA 94538", "doing_business_as": "GATERS", "grade": "g", "inspection_date": "2014-08-20", "violation_description": "Hot and cold water available"}, "type": "Feature"}, {"geometry": {"coordinates": [-122.158464, 37.743633], "type": "Point"}, "properties": {"address": "7000 BANCROFT AVE OAKLAND, CA 94605", "doing_business_as": "GAZZALIS SUPERMARKET", "grade": "g", "inspection_date": "2018-11-28", "violation_description": "Proper cooling methods"}, "type": "Feature"}, {"geometry": {"coordinates": [-122.260921, 37.812743], "type": "Point"}, "properties": {"address": "230 BAY PL OAKLAND, CA 94612", "doing_business_as": "GENJI SUSHI", "grade": "No Grade Recorded", "inspection_date": "2019-07-29", "violation_description": "Nonfood-contact surfaces clean"}, "type": "Feature"}, {"geometry": {"coordinates": [-122.198692, 37.791406], "type": "Point"}, "properties": {"address": "3811 MACARTHUR BLVD OAKLAND, CA 94619", "doing_business_as": "GERARDO'S", "grade": "g", "inspection_date": "2015-01-05", "violation_description": "Plumbing proper backflow devices"}, "type": "Feature"}, {"geometry": {"coordinates": [-122.079684, 37.676798], "type": "Point"}, "properties": {"address": "1235 A ST HAYWARD, CA 94541", "doing_business_as": "GHAZNI", "grade": "g", "inspection_date": "2019-01-23", "violation_description": "Equipment, utensils and linens: storage and use"}, "type": "Feature"}, {"geometry": {"coordinates": [-122.078407, 37.666111], "type": "Point"}, "properties": {"address": "24134 MISSION BLVD HAYWARD, CA 94541", "doing_business_as": "GIANT BURGERS", "grade": "g", "inspection_date": "2014-02-27", "violation_description": "Nonfood-contact surfaces clean"}, "type": "Feature"}, {"geometry": {"coordinates": [-121.952479, 37.542371], "type": "Point"}, "properties": {"address": "39150 PASEO PADRE PKWY FREMONT, CA 94538", "doing_business_as": "GO CHAATZZ", "grade": "y", "inspection_date": "2014-09-09", "violation_description": "Food in good condition, safe and unadulterated"}, "type": "Feature"}, {"geometry": {"coordinates": [-122.270438, 37.803304], "type": "Point"}, "properties": {"address": "1301 FRANKLIN ST OAKLAND, CA 94612", "doing_business_as": "GOLDEN LOTUS", "grade": "y", "inspection_date": "2017-05-25", "violation_description": "Proper cooling methods"}, "type": "Feature"}, {"geometry": {"coordinates": [-122.086743, 37.68096], "type": "Point"}, "properties": {"address": "21933 FOOTHILL BLVD HAYWARD, CA 94541", "doing_business_as": "GOLDEN MOUNTAIN RESTAURANT", "grade": "g", "inspection_date": "2017-12-21", "violation_description": "Plan Review"}, "type": "Feature"}, {"geometry": {"coordinates": [-121.922852, 37.495863], "type": "Point"}, "properties": {"address": "46531 MISSION BLVD FREMONT, CA 94539", "doing_business_as": "GOLDEN PINEAPPLE", "grade": "g", "inspection_date": "2018-04-13", "violation_description": "Hot and cold water available"}, "type": "Feature"}, {"geometry": {"coordinates": [-121.922852, 37.495863], "type": "Point"}, "properties": {"address": "46531 MISSION BLVD FREMONT, CA 94539", "doing_business_as": "GOLDEN PINEAPPLE", "grade": "g", "inspection_date": "2019-05-03", "violation_description": "Impoundment"}, "type": "Feature"}, {"geometry": {"coordinates": [-121.948202, 37.549965], "type": "Point"}, "properties": {"address": "555 LEMOS LN FREMONT, CA 94539", "doing_business_as": "GOMES SCHOOL CAFETERIA", "grade": "g", "inspection_date": "2016-10-26", "violation_description": "Returned and reservice of food"}, "type": "Feature"}, {"geometry": {"coordinates": [-122.289692, 37.890843], "type": "Point"}, "properties": {"address": "1423 SOLANO AVE ALBANY, CA 94706", "doing_business_as": "GORDO TAQUERIA #3", "grade": "y", "inspection_date": "2017-03-28", "violation_description": "Signs posted last inspection report available"}, "type": "Feature"}, {"geometry": {"coordinates": [-122.254467, 37.80895], "type": "Point"}, "properties": {"address": "384 GRAND AVE OAKLAND, CA 94610", "doing_business_as": "GRAND AVENUE THAI CUISINE", "grade": "r", "inspection_date": "2017-05-22", "violation_description": "Nonfood-contact surfaces clean"}, "type": "Feature"}, {"geometry": {"coordinates": [-122.25518, 37.772527], "type": "Point"}, "properties": {"address": "1702 LINCOLN AVE ALAMEDA, CA 94501", "doing_business_as": "GRAND MARKET", "grade": "g", "inspection_date": "2013-09-26", "violation_description": "Plan Review"}, "type": "Feature"}, {"geometry": {"coordinates": [-122.278748, 37.842768], "type": "Point"}, "properties": {"address": "942 STANFORD AVE OAKLAND, CA 94608", "doing_business_as": "GREASEBOX", "grade": "g", "inspection_date": "2016-08-22", "violation_description": "Nonfood-contact surfaces clean"}, "type": "Feature"}, {"geometry": {"coordinates": [-122.271607, 37.798741], "type": "Point"}, "properties": {"address": "720 WEBSTER ST OAKLAND, CA 94607", "doing_business_as": "GREAT WALL COMPANY", "grade": "g", "inspection_date": "2017-05-04", "violation_description": "No rodents, insects, birds, or animals"}, "type": "Feature"}, {"geometry": {"coordinates": [-122.194849, 37.764389], "type": "Point"}, "properties": {"address": "6328 E 17TH ST OAKLAND, CA 94621", "doing_business_as": "GREEN LEAF SCHOOL", "grade": "g", "inspection_date": "2017-12-15", "violation_description": "Toilet facilities: properly constructed, supplied,"}, "type": "Feature"}, {"geometry": {"coordinates": [-122.234709, 37.787698], "type": "Point"}, "properties": {"address": "1880 22ND AVE OAKLAND, CA 94606", "doing_business_as": "SUNRISE MARKET", "grade": "g", "inspection_date": "2017-06-27", "violation_description": "Permits Available"}, "type": "Feature"}, {"geometry": {"coordinates": [-122.137428, 37.711433], "type": "Point"}, "properties": {"address": "14327 E 14TH ST SAN LEANDRO, CA 94578", "doing_business_as": "GUADALAJARA TAQUERIA", "grade": "y", "inspection_date": "2014-08-19", "violation_description": "Proper cooling methods"}, "type": "Feature"}, {"geometry": {"coordinates": [-122.147643, 37.69151], "type": "Point"}, "properties": {"address": "991 MANOR BLVD SAN LEANDRO, CA 94579", "doing_business_as": "GUIDO'S", "grade": "g", "inspection_date": "2013-02-01", "violation_description": "Signs posted last inspection report available"}, "type": "Feature"}, {"geometry": {"coordinates": [-122.014527, 37.556633], "type": "Point"}, "properties": {"address": "4342 THORNTON AVE FREMONT, CA 94536", "doing_business_as": "GYRO TOWN", "grade": "No Grade Recorded", "inspection_date": "2016-09-13", "violation_description": "Food separated and protected"}, "type": "Feature"}, {"geometry": {"coordinates": [-122.05084, 37.595408], "type": "Point"}, "properties": {"address": "34595 ALVARADO NILES RD UNION CITY, CA 94587", "doing_business_as": "HAAFIZ FOOD MART", "grade": "g", "inspection_date": "2015-11-19", "violation_description": "No rodents, insects, birds, or animals"}, "type": "Feature"}, {"geometry": {"coordinates": [-121.937541, 37.705041], "type": "Point"}, "properties": {"address": "7298 SAN RAMON RD DUBLIN, CA 94568", "doing_business_as": "HANA JAPAN STEAK HOUSE", "grade": "g", "inspection_date": "2012-09-27", "violation_description": "Plumbing proper backflow devices"}, "type": "Feature"}, {"geometry": {"coordinates": [-121.782744, 37.678796], "type": "Point"}, "properties": {"address": "979 E STANLEY BLVD LIVERMORE, CA 94550", "doing_business_as": "HANABISHI", "grade": "g", "inspection_date": "2015-06-24", "violation_description": "Hot and cold water available"}, "type": "Feature"}, {"geometry": {"coordinates": [-122.149984, 37.741628], "type": "Point"}, "properties": {"address": "10807 MACARTHUR BLVD OAKLAND, CA 94605", "doing_business_as": "HAPPY DONUTS", "grade": "g", "inspection_date": "2018-06-22", "violation_description": "Demonstration of knowledge food manager certifica"}, "type": "Feature"}, {"geometry": {"coordinates": [-122.26512, 37.812104], "type": "Point"}, "properties": {"address": "2300 WEBSTER ST OAKLAND, CA 94612", "doing_business_as": "HAWKER FARE", "grade": "y", "inspection_date": "2015-10-12", "violation_description": "Plan Review"}, "type": "Feature"}, {"geometry": {"coordinates": [-122.07677, 37.663253], "type": "Point"}, "properties": {"address": "849 SYCAMORE AVE HAYWARD, CA 94544", "doing_business_as": "HAYWARD LIQUOR & GROCERY", "grade": "g", "inspection_date": "2013-02-13", "violation_description": "Nonfood-contact surfaces clean"}, "type": "Feature"}, {"geometry": {"coordinates": [-121.768444, 37.681833], "type": "Point"}, "properties": {"address": "2293 FIRST ST LIVERMORE, CA 94550", "doing_business_as": "HENRY BEAM'S BLUE BAR", "grade": "g", "inspection_date": "2015-06-12", "violation_description": "Plumbing proper backflow devices"}, "type": "Feature"}, {"geometry": {"coordinates": [-121.785821, 37.67841], "type": "Point"}, "properties": {"address": "900 E STANLEY BLVD LIVERMORE, CA 94550", "doing_business_as": "HERITAGE ESTATES", "grade": "g", "inspection_date": "2012-10-03", "violation_description": "Nonfood-contact surfaces clean"}, "type": "Feature"}, {"geometry": {"coordinates": [-122.269481, 37.804996], "type": "Point"}, "properties": {"address": "400 15TH ST OAKLAND, CA 94612", "doing_business_as": "HI-LIFE PIZZA", "grade": "r", "inspection_date": "2018-05-03", "violation_description": "Time as a public health control procedures & reco"}, "type": "Feature"}, {"geometry": {"coordinates": [-122.137451, 37.686609], "type": "Point"}, "properties": {"address": "510 LEWELLING BLVD SAN LEANDRO, CA 94579", "doing_business_as": "HILTON GARDEN INN", "grade": "g", "inspection_date": "2016-05-27", "violation_description": "Food separated and protected"}, "type": "Feature"}, {"geometry": {"coordinates": [-122.283517, 37.801417], "type": "Point"}, "properties": {"address": "2700 5TH ST ALAMEDA, CA 94502", "doing_business_as": "TARGET STORE #2829", "grade": "g", "inspection_date": "2016-07-27", "violation_description": "Food contact surfaces: clean and sanitized"}, "type": "Feature"}, {"geometry": {"coordinates": [-122.246273, 37.81071], "type": "Point"}, "properties": {"address": "677 RAND AVE OAKLAND, CA 94610", "doing_business_as": "HOLY LAND", "grade": "y", "inspection_date": "2014-04-10", "violation_description": "Personal cleanliness and hair restraints"}, "type": "Feature"}, {"geometry": {"coordinates": [-122.267898, 37.817062], "type": "Point"}, "properties": {"address": "2773 TELEGRAPH AVE OAKLAND, CA 94612", "doing_business_as": "HOME ON THE RANGE", "grade": "y", "inspection_date": "2018-06-28", "violation_description": "Nonfood-contact surfaces clean"}, "type": "Feature"}, {"geometry": {"coordinates": [-122.235165, 37.777286], "type": "Point"}, "properties": {"address": "2701 E 9TH ST OAKLAND, CA 94601", "doing_business_as": "TAQUERIA LA BARCA", "grade": "g", "inspection_date": "2016-03-11", "violation_description": "Food contact surfaces: clean and sanitized"}, "type": "Feature"}, {"geometry": {"coordinates": [-122.24264, 37.764539], "type": "Point"}, "properties": {"address": "1425 PARK ST ALAMEDA, CA 94501", "doing_business_as": "HONG KONG CITY RESTAURANT", "grade": "g", "inspection_date": "2014-04-03", "violation_description": "Person in charge present and performs duties"}, "type": "Feature"}, {"geometry": {"coordinates": [-122.282319, 37.80453], "type": "Point"}, "properties": {"address": "900 MARKET ST #C OAKLAND, CA 94607", "doing_business_as": "HONG KONG FAST FOOD", "grade": "g", "inspection_date": "2014-08-04", "violation_description": "Food separated and protected"}, "type": "Feature"}, {"geometry": {"coordinates": [-122.282319, 37.80453], "type": "Point"}, "properties": {"address": "900 MARKET ST #C OAKLAND, CA 94607", "doing_business_as": "HONG KONG FAST FOOD", "grade": "No Grade Recorded", "inspection_date": "2016-10-11", "violation_description": "Proper cooling methods"}, "type": "Feature"}, {"geometry": {"coordinates": [-122.254389, 37.808846], "type": "Point"}, "properties": {"address": "391 GRAND AVE OAKLAND, CA 94610", "doing_business_as": "HOUSE OF CURRIES", "grade": "y", "inspection_date": "2014-12-10", "violation_description": "Signs posted last inspection report available"}, "type": "Feature"}, {"geometry": {"coordinates": [-121.988575, 37.548327], "type": "Point"}, "properties": {"address": "4004 MOWRY AVE FREMONT, CA 94538", "doing_business_as": "HUB VALERO", "grade": "g", "inspection_date": "2018-10-23", "violation_description": "Plumbing proper backflow devices"}, "type": "Feature"}, {"geometry": {"coordinates": [-122.18243, 37.798344], "type": "Point"}, "properties": {"address": "4100 REDWOOD RD 11 OAKLAND, CA 94619", "doing_business_as": "HUNAN YUAN RESTAURANT", "grade": "g", "inspection_date": "2018-04-19", "violation_description": "Nonfood-contact surfaces clean"}, "type": "Feature"}, {"geometry": {"coordinates": [-122.293398, 37.839255], "type": "Point"}, "properties": {"address": "5800 SHELLMOUND ST EMERYVILLE, CA 94608", "doing_business_as": "HYATT HOUSE", "grade": "No Grade Recorded", "inspection_date": "2017-07-13", "violation_description": "Proper cooling methods"}, "type": "Feature"}, {"geometry": {"coordinates": [-122.266617, 37.811053], "type": "Point"}, "properties": {"address": "2204 BROADWAY OAKLAND, CA 94612", "doing_business_as": "IKE'S LAIR", "grade": "No Grade Recorded", "inspection_date": "2016-10-10", "violation_description": "Equipment, utensils and linens: storage and use"}, "type": "Feature"}, {"geometry": {"coordinates": [-121.979183, 37.550218], "type": "Point"}, "properties": {"address": "3395 WALNUT AVE FREMONT, CA 94538", "doing_business_as": "INDIA CHATKHARA RESTAURANT", "grade": "g", "inspection_date": "2012-10-04", "violation_description": "Food separated and protected"}, "type": "Feature"}, {"geometry": {"coordinates": [-121.981708, 37.546632], "type": "Point"}, "properties": {"address": "3890 WALNUT AVE FREMONT, CA 94538", "doing_business_as": "INDIAN MARKET", "grade": "g", "inspection_date": "2018-11-19", "violation_description": "Nonfood-contact surfaces clean"}, "type": "Feature"}, {"geometry": {"coordinates": [-121.971082, 37.522519], "type": "Point"}, "properties": {"address": "41800 BLACOW RD FREMONT, CA 94538", "doing_business_as": "IRVINGTON HS", "grade": "g", "inspection_date": "2019-05-02", "violation_description": "Hot and cold water available"}, "type": "Feature"}, {"geometry": {"coordinates": [-122.023704, 37.540784], "type": "Point"}, "properties": {"address": "39017 CEDAR BLVD NEWARK, CA 94560", "doing_business_as": "JACK IN THE BOX #3481", "grade": "No Grade Recorded", "inspection_date": "2015-03-30", "violation_description": "Nonfood-contact surfaces clean"}, "type": "Feature"}, {"geometry": {"coordinates": [-122.098107, 37.633072], "type": "Point"}, "properties": {"address": "25198 HESPERIAN BLVD HAYWARD, CA 94544", "doing_business_as": "JACK IN THE BOX #424", "grade": "No Grade Recorded", "inspection_date": "2012-05-30", "violation_description": "Nonfood-contact surfaces clean"}, "type": "Feature"}, {"geometry": {"coordinates": [-122.263839, 37.832737], "type": "Point"}, "properties": {"address": "4425 TELEGRAPH AVE OAKLAND, CA 94609", "doing_business_as": "JACK IN THE BOX #433", "grade": "g", "inspection_date": "2014-12-01", "violation_description": "Food separated and protected"}, "type": "Feature"}, {"geometry": {"coordinates": [-122.066648, 37.650617], "type": "Point"}, "properties": {"address": "22501 MISSION BLVD HAYWARD, CA 94545", "doing_business_as": "JAMBA JUICE #495", "grade": "g", "inspection_date": "2019-06-24", "violation_description": "Consumer self service"}, "type": "Feature"}, {"geometry": {"coordinates": [-122.11957, 37.66722], "type": "Point"}, "properties": {"address": "19651 HESPERIAN BLVD HAYWARD, CA 94541", "doing_business_as": "JAMBA JUICE #800", "grade": "g", "inspection_date": "2018-05-17", "violation_description": "Nonfood-contact surfaces clean"}, "type": "Feature"}, {"geometry": {"coordinates": [-122.261731, 37.770026], "type": "Point"}, "properties": {"address": "1414 ENCINAL AVE ALAMEDA, CA 94501", "doing_business_as": "JAY'S COFFEE & TEA", "grade": "g", "inspection_date": "2019-05-17", "violation_description": "Impoundment"}, "type": "Feature"}, {"geometry": {"coordinates": [-121.947585, 37.511081], "type": "Point"}, "properties": {"address": "43900 ICE HOUSE TER FREMONT, CA 94538", "doing_business_as": "JBT (JIM'S BREAK TIME)", "grade": "g", "inspection_date": "2017-08-18", "violation_description": "Wiping cloths: properly used and stored"}, "type": "Feature"}, {"geometry": {"coordinates": [-121.924807, 37.693044], "type": "Point"}, "properties": {"address": "5532 SPRINGDALE AVE PLEASANTON, CA 94588", "doing_business_as": "JC PENNEY #0389-H", "grade": "g", "inspection_date": "2014-06-16", "violation_description": "Plumbing proper backflow devices"}, "type": "Feature"}, {"geometry": {"coordinates": [-122.046961, 37.553091], "type": "Point"}, "properties": {"address": "5810 JARVIS AVE NEWARK, CA 94560", "doing_business_as": "JOHNNY'S PUB", "grade": "g", "inspection_date": "2019-06-18", "violation_description": "Hot and cold water available"}, "type": "Feature"}, {"geometry": {"coordinates": [-121.897482, 37.69134], "type": "Point"}, "properties": {"address": "2705 STONERIDGE DR #M PLEASANTON, CA 94588", "doing_business_as": "K W RESTAURANT", "grade": "g", "inspection_date": "2019-03-11", "violation_description": "Impoundment"}, "type": "Feature"}, {"geometry": {"coordinates": [-122.239344, 37.763851], "type": "Point"}, "properties": {"address": "2549 SANTA CLARA AVE ALAMEDA, CA 94501", "doing_business_as": "KAMAKURA RESTAURANT", "grade": "y", "inspection_date": "2016-12-01", "violation_description": "Impoundment"}, "type": "Feature"}, {"geometry": {"coordinates": [-121.876335, 37.700702], "type": "Point"}, "properties": {"address": "4275 ROSEWOOD DR 27 PLEASANTON, CA 94588", "doing_business_as": "KASPERS HOT DOGS", "grade": "No Grade Recorded", "inspection_date": "2012-05-03", "violation_description": "Nonfood-contact surfaces clean"}, "type": "Feature"}, {"geometry": {"coordinates": [-122.074035, 37.702693], "type": "Point"}, "properties": {"address": "20861 REDWOOD RD CASTRO VALLEY, CA 94546", "doing_business_as": "KATSU RESTAURANT", "grade": "g", "inspection_date": "2013-04-18", "violation_description": "Thermometers provided and accurate"}, "type": "Feature"}, {"geometry": {"coordinates": [-121.768453, 37.680164], "type": "Point"}, "properties": {"address": "2180 3RD ST LIVERMORE, CA 94550", "doing_business_as": "KAWA SUSHI", "grade": "y", "inspection_date": "2017-03-23", "violation_description": "Nonfood-contact surfaces clean"}, "type": "Feature"}, {"geometry": {"coordinates": [-122.110433, 37.666277], "type": "Point"}, "properties": {"address": "525 W A ST HAYWARD, CA 94541", "doing_business_as": "KB VALERO (MARKET)", "grade": "r", "inspection_date": "2018-01-04", "violation_description": "Impoundment"}, "type": "Feature"}, {"geometry": {"coordinates": [-122.223102, 37.783205], "type": "Point"}, "properties": {"address": "1939 FRUITVALE AVE OAKLAND, CA 94601", "doing_business_as": "KELLY'S CAFE", "grade": "g", "inspection_date": "2014-12-10", "violation_description": "Nonfood-contact surfaces clean"}, "type": "Feature"}, {"geometry": {"coordinates": [-122.042348, 37.552564], "type": "Point"}, "properties": {"address": "35430 BLACKBURN DR NEWARK, CA 94560", "doing_business_as": "KENNEDY ELEMENTARY SCHOOL", "grade": "g", "inspection_date": "2013-10-28", "violation_description": "Nonfood-contact surfaces clean"}, "type": "Feature"}, {"geometry": {"coordinates": [-122.243668, 37.762045], "type": "Point"}, "properties": {"address": "2424 ENCINAL AVE ALAMEDA, CA 94501", "doing_business_as": "KENTUCKY FRIED CHICKEN #140 KUMAR", "grade": "g", "inspection_date": "2018-12-18", "violation_description": "Nonfood-contact surfaces clean"}, "type": "Feature"}, {"geometry": {"coordinates": [-121.92482, 37.489532], "type": "Point"}, "properties": {"address": "190 FRANCISCAN LN FREMONT, CA 94539", "doing_business_as": "KENTUCKY FRIED CHICKEN #185", "grade": "g", "inspection_date": "2017-11-15", "violation_description": "Signs posted last inspection report available"}, "type": "Feature"}, {"geometry": {"coordinates": [-122.010088, 37.559663], "type": "Point"}, "properties": {"address": "37123 FREMONT BLVD FREMONT, CA 94536", "doing_business_as": "KFC & AW RESTAURANT", "grade": "y", "inspection_date": "2016-10-12", "violation_description": "Hot and cold water available"}, "type": "Feature"}, {"geometry": {"coordinates": [-121.956757, 37.521749], "type": "Point"}, "properties": {"address": "42318 FREMONT BLVD FREMONT, CA 94538", "doing_business_as": "THE GREEN CHAMPA GARDEN", "grade": "g", "inspection_date": "2017-08-22", "violation_description": "Nonfood-contact surfaces clean"}, "type": "Feature"}, {"geometry": {"coordinates": [-122.272401, 37.799555], "type": "Point"}, "properties": {"address": "395 8TH ST OAKLAND, CA 94607", "doing_business_as": "KING OF GROCERY", "grade": "g", "inspection_date": "2015-12-29", "violation_description": "Food separated and protected"}, "type": "Feature"}, {"geometry": {"coordinates": [-122.246818, 37.813293], "type": "Point"}, "properties": {"address": "3332 GRAND AVE OAKLAND, CA 94610", "doing_business_as": "KINGMAN'S LUCKY LOUNGE", "grade": "g", "inspection_date": "2014-09-15", "violation_description": "Nonfood-contact surfaces clean"}, "type": "Feature"}, {"geometry": {"coordinates": [-122.14155, 37.700142], "type": "Point"}, "properties": {"address": "250 FLORESTA BLVD SAN LEANDRO, CA 94578", "doing_business_as": "K-MART", "grade": "g", "inspection_date": "2012-08-23", "violation_description": "Nonfood-contact surfaces clean"}, "type": "Feature"}, {"geometry": {"coordinates": [-121.995909, 37.539533], "type": "Point"}, "properties": {"address": "5379 MOWRY AVE FREMONT, CA 94538", "doing_business_as": "KOHE-NOOR", "grade": "g", "inspection_date": "2014-06-03", "violation_description": "Consumer self service"}, "type": "Feature"}, {"geometry": {"coordinates": [-121.950467, 37.490466], "type": "Point"}, "properties": {"address": "4185 CUSHING PKWY FREMONT, CA 94538", "doing_business_as": "KOREAN CUISINE", "grade": "r", "inspection_date": "2012-09-19", "violation_description": "Permits Available"}, "type": "Feature"}, {"geometry": {"coordinates": [-121.991773, 37.550291], "type": "Point"}, "properties": {"address": "35041 FREMONT BLVD FREMONT, CA 94536", "doing_business_as": "K-POP CAFE", "grade": "g", "inspection_date": "2017-09-29", "violation_description": "Hot and cold water available"}, "type": "Feature"}, {"geometry": {"coordinates": [-122.122764, 37.686798], "type": "Point"}, "properties": {"address": "15 E LEWELLING BLVD SAN LORENZO, CA 94580", "doing_business_as": "KUSINERA", "grade": "g", "inspection_date": "2018-03-09", "violation_description": "Food storage food storage containers identified"}, "type": "Feature"}, {"geometry": {"coordinates": [-122.050809, 37.54867], "type": "Point"}, "properties": {"address": "6185 JARVIS AVE NEWARK, CA 94560", "doing_business_as": "L & L HAWAIIAN BARBECUE", "grade": "g", "inspection_date": "2014-10-08", "violation_description": "Signs posted last inspection report available"}, "type": "Feature"}, {"geometry": {"coordinates": [-122.267003, 37.811011], "type": "Point"}, "properties": {"address": "2200 BROADWAY OAKLAND, CA 94612", "doing_business_as": "LA BONITA TAQUERIA", "grade": "r", "inspection_date": "2017-08-16", "violation_description": "Proper cooling methods"}, "type": "Feature"}, {"geometry": {"coordinates": [-122.280564, 37.815828], "type": "Point"}, "properties": {"address": "2321 FILBERT ST OAKLAND, CA 94607", "doing_business_as": "LA BONNE CUISINE", "grade": "No Grade Recorded", "inspection_date": "2016-11-18", "violation_description": "Proper cooling methods"}, "type": "Feature"}, {"geometry": {"coordinates": [-121.958355, 37.530063], "type": "Point"}, "properties": {"address": "41240 FREMONT BLVD FREMONT, CA 94538", "doing_business_as": "LA CASITA", "grade": "g", "inspection_date": "2012-09-06", "violation_description": "Nonfood-contact surfaces clean"}, "type": "Feature"}, {"geometry": {"coordinates": [-122.213926, 37.771904], "type": "Point"}, "properties": {"address": "4825 INTERNATIONAL BLVD OAKLAND, CA 94601", "doing_business_as": "LA COLMENA PRODUCE MARKET", "grade": "g", "inspection_date": "2018-08-13", "violation_description": "Nonfood-contact surfaces clean"}, "type": "Feature"}, {"geometry": {"coordinates": [-122.216612, 37.778858], "type": "Point"}, "properties": {"address": "3809 FOOTHILL BLVD OAKLAND, CA 94601", "doing_business_as": "LA FINCA #2", "grade": "No Grade Recorded", "inspection_date": "2019-03-07", "violation_description": "Adequate handwashing facilities supplied & accessi"}, "type": "Feature"}, {"geometry": {"coordinates": [-122.153859, 37.715793], "type": "Point"}, "properties": {"address": "1269 MARINA BLVD SAN LEANDRO, CA 94577", "doing_business_as": "SUBWAY", "grade": "g", "inspection_date": "2014-05-08", "violation_description": "Signs posted last inspection report available"}, "type": "Feature"}, {"geometry": {"coordinates": [-122.08217, 37.675086], "type": "Point"}, "properties": {"address": "236 A ST HAYWARD, CA 94541", "doing_business_as": "LA MEXICANA", "grade": "g", "inspection_date": "2014-12-22", "violation_description": "Proper cooling methods"}, "type": "Feature"}, {"geometry": {"coordinates": [-122.240892, 37.737597], "type": "Point"}, "properties": {"address": "891 ISLAND DR #B ALAMEDA, CA 94502", "doing_business_as": "LA PENCA AZUL", "grade": "g", "inspection_date": "2012-11-01", "violation_description": "Plumbing proper backflow devices"}, "type": "Feature"}, {"geometry": {"coordinates": [-121.907976, 37.706212], "type": "Point"}, "properties": {"address": "6275 DUBLIN BLVD DUBLIN, CA 94568", "doing_business_as": "LA QUINTA INN & SUITES", "grade": "r", "inspection_date": "2013-02-28", "violation_description": "Hot and cold water available"}, "type": "Feature"}, {"geometry": {"coordinates": [-122.062148, 37.645061], "type": "Point"}, "properties": {"address": "26953 MISSION BLVD F HAYWARD, CA 94544", "doing_business_as": "LA VICTORIA", "grade": "y", "inspection_date": "2012-07-24", "violation_description": "Signs posted last inspection report available"}, "type": "Feature"}, {"geometry": {"coordinates": [-122.219996, 37.790272], "type": "Point"}, "properties": {"address": "2682 FRUITVALE AVE OAKLAND, CA 94601", "doing_business_as": "LAS PALMAS RESTAURANT", "grade": "y", "inspection_date": "2012-11-02", "violation_description": "Proper cooling methods"}, "type": "Feature"}, {"geometry": {"coordinates": [-122.197818, 37.790723], "type": "Point"}, "properties": {"address": "3932 MACARTHUR BLVD OAKLAND, CA 94619", "doing_business_as": "LAUREL LOUNGE", "grade": "g", "inspection_date": "2015-01-05", "violation_description": "Nonfood-contact surfaces clean"}, "type": "Feature"}, {"geometry": {"coordinates": [-121.998609, 37.536094], "type": "Point"}, "properties": {"address": "5014 MOWRY AVE FREMONT, CA 94538", "doing_business_as": "LE MOOSE CREPE CAFE", "grade": "g", "inspection_date": "2018-11-28", "violation_description": "Plan Review"}, "type": "Feature"}, {"geometry": {"coordinates": [-122.154403, 37.724113], "type": "Point"}, "properties": {"address": "1443 E 14TH ST A SAN LEANDRO, CA 94577", "doing_business_as": "LEISURE CAFE", "grade": "y", "inspection_date": "2018-11-02", "violation_description": "Hot and cold water available"}, "type": "Feature"}, {"geometry": {"coordinates": [-122.268058, 37.806116], "type": "Point"}, "properties": {"address": "380 17TH ST OAKLAND, CA 94612", "doing_business_as": "LIBA FALAFEL", "grade": "g", "inspection_date": "2014-12-15", "violation_description": "Wiping cloths: properly used and stored"}, "type": "Feature"}, {"geometry": {"coordinates": [-122.049745, 37.549654], "type": "Point"}, "properties": {"address": "6104 JARVIS AVE NEWARK, CA 94560", "doing_business_as": "LIDO FAIRE CHEVRON", "grade": "No Grade Recorded", "inspection_date": "2012-05-03", "violation_description": "Nonfood-contact surfaces clean"}, "type": "Feature"}, {"geometry": {"coordinates": [-122.268146, 37.800458], "type": "Point"}, "properties": {"address": "225 11TH ST OAKLAND, CA 94607", "doing_business_as": "LINCOLN ELEMENTARY SCHOOL", "grade": "g", "inspection_date": "2015-05-29", "violation_description": "Proper hot and cold holding temperatures"}, "type": "Feature"}, {"geometry": {"coordinates": [-122.241582, 37.765491], "type": "Point"}, "properties": {"address": "1506 PARK ST ALAMEDA, CA 94501", "doing_business_as": "LINGUINI'S PASTA & VINO CAFE", "grade": "y", "inspection_date": "2015-02-24", "violation_description": "Proper cooling methods"}, "type": "Feature"}, {"geometry": {"coordinates": [-122.276938, 37.773958], "type": "Point"}, "properties": {"address": "1521 WEBSTER ST A ALAMEDA, CA 94501", "doing_business_as": "LITTLE CAESAR'S PIZZA", "grade": "g", "inspection_date": "2014-11-18", "violation_description": "Nonfood-contact surfaces clean"}, "type": "Feature"}, {"geometry": {"coordinates": [-122.276938, 37.773958], "type": "Point"}, "properties": {"address": "1521 WEBSTER ST A ALAMEDA, CA 94501", "doing_business_as": "LITTLE CAESAR'S PIZZA", "grade": "g", "inspection_date": "2018-06-29", "violation_description": "Nonfood-contact surfaces clean"}, "type": "Feature"}, {"geometry": {"coordinates": [-121.873848, 37.707816], "type": "Point"}, "properties": {"address": "4480 TASSAJARA RD #B DUBLIN, CA 94568", "doing_business_as": "LITTLE MADFISH", "grade": "g", "inspection_date": "2013-01-23", "violation_description": "Hot and cold water available"}, "type": "Feature"}, {"geometry": {"coordinates": [-121.972503, 37.506234], "type": "Point"}, "properties": {"address": "43337 CHRISTY ST FREMONT, CA 94538", "doing_business_as": "LITTLE MADFISH", "grade": "g", "inspection_date": "2015-03-02", "violation_description": "Food contact surfaces: clean and sanitized"}, "type": "Feature"}, {"geometry": {"coordinates": [-122.020684, 37.589274], "type": "Point"}, "properties": {"address": "1749 DECOTO RD UNION CITY, CA 94587", "doing_business_as": "LITTLE SHEN YANG", "grade": "y", "inspection_date": "2014-03-10", "violation_description": "Nonfood-contact surfaces clean"}, "type": "Feature"}, {"geometry": {"coordinates": [-121.768402, 37.681581], "type": "Point"}, "properties": {"address": "2223 FIRST ST LIVERMORE, CA 94550", "doing_business_as": "LIVERMORE SALOON", "grade": "g", "inspection_date": "2013-10-15", "violation_description": "Plan Review"}, "type": "Feature"}, {"geometry": {"coordinates": [-121.770633, 37.690087], "type": "Point"}, "properties": {"address": "2451 PORTOLA AVE LIVERMORE, CA 94551", "doing_business_as": "LIVERMORE VALLEY CHARTER PREP HS", "grade": "g", "inspection_date": "2017-05-03", "violation_description": "Proper hot and cold holding temperatures"}, "type": "Feature"}, {"geometry": {"coordinates": [-121.769645, 37.681492], "type": "Point"}, "properties": {"address": "2130 FIRST ST LIVERMORE, CA 94550", "doing_business_as": "LOS CAPORALES TAQUERIA", "grade": "g", "inspection_date": "2013-06-05", "violation_description": "Hot and cold water available"}, "type": "Feature"}, {"geometry": {"coordinates": [-122.223548, 37.783864], "type": "Point"}, "properties": {"address": "3010 FOOTHILL BLVD OAKLAND, CA 94601", "doing_business_as": "LOS OLIVOS", "grade": "y", "inspection_date": "2018-01-26", "violation_description": "Nonfood-contact surfaces clean"}, "type": "Feature"}, {"geometry": {"coordinates": [-122.097651, 37.680418], "type": "Point"}, "properties": {"address": "441 BLOSSOM WAY HAYWARD, CA 94541", "doing_business_as": "LOS VECO'S SUPER TAQUERIA", "grade": "y", "inspection_date": "2014-09-26", "violation_description": "Thermometers provided and accurate"}, "type": "Feature"}, {"geometry": {"coordinates": [-121.96158, 37.542483], "type": "Point"}, "properties": {"address": "39158 PASEO PADRE PKWY FREMONT, CA 94538", "doing_business_as": "LOTUS INDIAN EXPRESS", "grade": "y", "inspection_date": "2014-05-19", "violation_description": "Proper cooling methods"}, "type": "Feature"}, {"geometry": {"coordinates": [-121.877783, 37.688417], "type": "Point"}, "properties": {"address": "1991 SANTA RITA RD #A PLEASANTON, CA 94566", "doing_business_as": "LOTUS PERSIAN CUISINE", "grade": "g", "inspection_date": "2014-09-30", "violation_description": "Food separated and protected"}, "type": "Feature"}, {"geometry": {"coordinates": [-122.262499, 37.836499], "type": "Point"}, "properties": {"address": "2817 TELEGRAPH AVE OAKLAND, CA 94609", "doing_business_as": "LOUISIANA FISH AND CHIPS", "grade": "No Grade Recorded", "inspection_date": "2018-06-27", "violation_description": "Nonfood-contact surfaces clean"}, "type": "Feature"}, {"geometry": {"coordinates": [-121.780295, 37.662247], "type": "Point"}, "properties": {"address": "1951 HOLMES ST LIVERMORE, CA 94550", "doing_business_as": "LUCKY #722", "grade": "g", "inspection_date": "2019-05-13", "violation_description": "Nonfood-contact surfaces clean"}, "type": "Feature"}, {"geometry": {"coordinates": [-121.998511, 37.536223], "type": "Point"}, "properties": {"address": "5000 MOWRY AVE FREMONT, CA 94538", "doing_business_as": "LUCKY", "grade": "g", "inspection_date": "2017-11-08", "violation_description": "Washing fruits and vegetables"}, "type": "Feature"}, {"geometry": {"coordinates": [-121.936111, 37.702472], "type": "Point"}, "properties": {"address": "8937 SAN RAMON RD DUBLIN, CA 94568", "doing_business_as": "LUMPIA HOUSE", "grade": "g", "inspection_date": "2012-10-25", "violation_description": "Proper cooling methods"}, "type": "Feature"}, {"geometry": {"coordinates": [-122.139469, 37.731366], "type": "Point"}, "properties": {"address": "1099 MACARTHUR BLVD SAN LEANDRO, CA 94577", "doing_business_as": "MAIN STREET BAGELS, INC", "grade": "y", "inspection_date": "2014-12-04", "violation_description": "Nonfood-contact surfaces clean"}, "type": "Feature"}, {"geometry": {"coordinates": [-121.876464, 37.659844], "type": "Point"}, "properties": {"address": "411 MAIN ST PLEASANTON, CA 94566", "doing_business_as": "MAIN SUSHI", "grade": "g", "inspection_date": "2013-11-20", "violation_description": "Food separated and protected"}, "type": "Feature"}, {"geometry": {"coordinates": [-121.971082, 37.522519], "type": "Point"}, "properties": {"address": "41200 BLACOW RD #I FREMONT, CA 94538", "doing_business_as": "MAPLE LEAF DONUTS", "grade": "No Grade Recorded", "inspection_date": "2012-04-30", "violation_description": "Wiping cloths: properly used and stored"}, "type": "Feature"}, {"geometry": {"coordinates": [-122.251499, 37.838087], "type": "Point"}, "properties": {"address": "5301 COLLEGE AVE OAKLAND, CA 94618", "doing_business_as": "MARCIA", "grade": "r", "inspection_date": "2017-10-18", "violation_description": "Food separated and protected"}, "type": "Feature"}, {"geometry": {"coordinates": [-121.929821, 37.49348], "type": "Point"}, "properties": {"address": "46196 WARM SPRINGS BLVD FREMONT, CA 94539", "doing_business_as": "MARINA FOOD #9", "grade": "g", "inspection_date": "2013-02-20", "violation_description": "Food separated and protected"}, "type": "Feature"}, {"geometry": {"coordinates": [-121.929821, 37.49348], "type": "Point"}, "properties": {"address": "46196 WARM SPRINGS BLVD FREMONT, CA 94539", "doing_business_as": "MARINA FOOD #9", "grade": "g", "inspection_date": "2017-08-03", "violation_description": "Thermometers provided and accurate"}, "type": "Feature"}, {"geometry": {"coordinates": [-121.929821, 37.49348], "type": "Point"}, "properties": {"address": "46196 WARM SPRINGS BLVD FREMONT, CA 94539", "doing_business_as": "MARINA FOOD #9", "grade": "g", "inspection_date": "2019-08-13", "violation_description": "Impoundment"}, "type": "Feature"}, {"geometry": {"coordinates": [-122.0208, 37.588938], "type": "Point"}, "properties": {"address": "1791 DECOTO RD UNION CITY, CA 94587", "doing_business_as": "MARINA GROCERY", "grade": "g", "inspection_date": "2016-11-21", "violation_description": "Nonfood-contact surfaces clean"}, "type": "Feature"}, {"geometry": {"coordinates": [-121.769141, 37.681334], "type": "Point"}, "properties": {"address": "2175 FIRST ST LIVERMORE, CA 94550", "doing_business_as": "MARIO'S LINKS N HOPS", "grade": "y", "inspection_date": "2016-12-07", "violation_description": "Impoundment"}, "type": "Feature"}, {"geometry": {"coordinates": [-122.262499, 37.836499], "type": "Point"}, "properties": {"address": "2956 TELEGRAPH AVE OAKLAND, CA 94609", "doing_business_as": "MAWRA HALAL MARKET", "grade": "y", "inspection_date": "2015-12-21", "violation_description": "Nonfood-contact surfaces clean"}, "type": "Feature"}, {"geometry": {"coordinates": [-122.063136, 37.689447], "type": "Point"}, "properties": {"address": "2905 GROVE WAY CASTRO VALLEY, CA 94546", "doing_business_as": "MCDONALD'S #13562", "grade": "g", "inspection_date": "2012-12-19", "violation_description": "Permits Available"}, "type": "Feature"}, {"geometry": {"coordinates": [-122.265443, 37.801515], "type": "Point"}, "properties": {"address": "1330 JACKSON ST OAKLAND, CA 94612", "doing_business_as": "MCDONALD'S #2112", "grade": "g", "inspection_date": "2013-03-21", "violation_description": "Food separated and protected"}, "type": "Feature"}, {"geometry": {"coordinates": [-122.195982, 37.74654], "type": "Point"}, "properties": {"address": "640 HEGENBERGER RD OAKLAND, CA 94621", "doing_business_as": "MCDONALD'S #2169", "grade": "r", "inspection_date": "2016-01-14", "violation_description": "Hot and cold water available"}, "type": "Feature"}, {"geometry": {"coordinates": [-122.170716, 37.744935], "type": "Point"}, "properties": {"address": "9725 INTERNATIONAL BLVD OAKLAND, CA 94603", "doing_business_as": "MCDONALD'S #7100", "grade": "g", "inspection_date": "2015-10-07", "violation_description": "Permits Available"}, "type": "Feature"}, {"geometry": {"coordinates": [-122.19917, 37.737781], "type": "Point"}, "properties": {"address": "8400 EDGEWATER DR OAKLAND, CA 94621", "doing_business_as": "MCDONALD'S RESTAURANT", "grade": "g", "inspection_date": "2014-09-03", "violation_description": "Impoundment"}, "type": "Feature"},